Country,NumericLatitude,NumericLongitude,Continent,kcc,City,Cluster
Iran,30.3636097,48.2591475,Asia,BWh,Abadan,0
Japan,35.863999,140.0280653,Asia,Cfa,Abiko,0
Morocco,30.4205162,-9.5838532,Africa,BSh,Agadir,0
Japan,35.9774082,139.5930504,Asia,Cfa,Ageo,0
Iran,31.3230637,48.67932,Asia,BWh,Ahvaz,0
France,43.5298424,5.4474738,Europe,Csa,Aix En Provence,0
Libya,30.7550035,20.2233257,Africa,BWh,Ajdabiya,0
Japan,34.6832635,134.9476925,Asia,Cfa,Akashi,0
Japan,35.70248,139.350065,Asia,Cfa,Akishima,0
Japan,39.6898802,140.342608,Asia,Cfa,Akita,0
China,41.1677575,80.2582136,Asia,BWk,Aksu,0
Spain,38.9950921,-1.8559154,Europe,BSk,Albacete,0
Spain,40.4818396,-3.3644973,Europe,BSk,Alcalá De Henares,0
Spain,40.5400082,-3.6358494,Europe,Csa,Alcobendas,0
Spain,40.3492998,-3.8284295,Europe,Csa,Alcorcón,0
Egypt,31.1991806,29.8951716,Africa,BWh,Alexandria,0
Spain,36.1311725,-5.4473991,Europe,Csa,Algeciras,0
Algeria,36.7753606,3.0601882,Africa,Csa,Algiers,0
Spain,36.8414197,-2.4628135,Europe,BSh,Almería,0
Portugal,38.758959,-9.2365233,Europe,Csa,Amadora,0
Japan,34.7288995,135.412989,Asia,Cfa,Amagasaki,0
Iran,36.4718947,52.3499009,Asia,BSh,Amol,0
Italy,43.4801204,13.218790609151764,Europe,Cfa,Ancona,0
Uzbekistan,40.7727796,72.34196601186889,Asia,BSk,Andijon,0
Uzbekistan,41.01829945,70.09787922207363,Asia,Dsa,Angren,0
Japan,34.947764,137.075563,Asia,Cfa,Anjo,0
China,30.5276161,117.0515956,Asia,Cfa,Anqing,0
China,36.4794705,119.2129818,Asia,Cwa,Anqiu,0
China,40.822222,122.8275,Asia,Dwa,Anshan,0
China,35.9901282,114.5096506,Asia,BSk,Anyang,0
Iran,34.0862719,49.6893884,Asia,BSk,Arak,0
Iran,38.4583983,47.9313001,Asia,Dsa,Ardabil,0
Tunisia,36.8665,10.1647,Africa,Csa,Aryanah,0
Japan,35.7970861,139.593733,Asia,Cfa,Asaka,0
Morocco,32.299424,-9.239533,Africa,BSh,Asfi,0
Turkmenistan,37.9404648,58.3823487,Asia,BWh,Asgabat,0
Israel,31.7958896,34.64891361423561,Asia,Csa,Ashdod,0
Japan,36.3401914,139.4497731,Asia,Cfa,Ashikaga,0
Israel,31.6644874,34.5730157,Asia,BSh,Ashqelon,0
Japan,35.4433894,139.3783891,Asia,Cfa,Atsugi,0
New Zealand,-36.852095,174.7631803,Oceania,Cfb,Auckland,0
Iran,36.5452581,52.6846571,Asia,BSh,Babol,0
Spain,38.878187,-6.9701115,Europe,Csa,Badajoz,0
Spain,41.4493539,2.248254,Europe,Cfa,Badalona,0
China,41.8200527,126.4233899,Asia,Dwb,Badaojiang,0
Iraq,33.3061701,44.3872213,Asia,BWh,Baghdad,0
Afghanistan,35.75,69.0,Asia,Dsb,Baglan,0
Argentina,-38.7176522,-62.2654871,South America,Cfa,Bahia Blanca,0
China,36.5451563,104.1355419,Asia,BSk,Baiyin,0
Azerbaijan,40.16399915,50.27770925520258,Asia,BWk,Baku,0
Iran,37.4716356,49.4685904,Asia,Csa,Bandar E Anzali,0
Iran,35.983333,45.816667,Asia,Csa,Baneh,0
China,38.8579735,115.490696,Asia,BSk,Baoding,0
China,34.3645811,107.2332184,Asia,BSk,Baoji,0
Italy,41.1257843,16.8620293,Europe,Csa,Bari,0
Israel,32.0154565,34.7505283,Asia,Csa,Bat Yam,0
China,41.8000713,120.7655332,Asia,Dwa,Beipiao,0
China,32.9155,117.3893,Asia,Cwa,Bengbu,0
Libya,32.1060708,20.0666748,Africa,BSh,Benghazi,0
Egypt,30.4624974,31.184063,Africa,BWh,Benha,0
China,41.2921601,123.7593948,Asia,Dwa,Benxi,0
Japan,33.2845752,131.4913063,Asia,Cfa,Beppu,0
China,37.3821206,117.9647262,Asia,Cwa,Binzhou,0
Iran,32.8633961,59.2177294,Asia,BWk,Birjand,0
South Africa,-29.116395,26.215496,Africa,BSk,Bloemfontein,0
Iran,37.4759752,57.3319881,Asia,BSk,Bojnurd,0
Iran,33.8943281,48.7560936,Asia,Csa,Borujerd,0
China,36.494716,117.8567023,Asia,Cwa,Boshan,0
China,33.8490794,115.7730968,Asia,Cwa,Bozhou,0
Portugal,41.5510583,-8.4280045,Europe,Csb,Braga,0
United States,41.1792695,-73.1887863,North America,Cfa,Bridgeport,0
China,30.287567,112.229788,Asia,Cfa,Buhe,0
Iran,36.5215096,46.2111837,Asia,Csa,Bukan,0
Spain,42.343926,-3.696977,Europe,Csb,Burgos,0
Brazil,-29.9493353,-51.0898927,South America,Cfa,Cachoeirinha,0
Italy,39.2171994,9.113311,Europe,Csa,Cagliari,0
Egypt,30.0443879,31.2357257,Africa,BWh,Cairo,0
China,38.3042796,116.8511597,Asia,BSk,Cangzhou,0
Brazil,-29.9216045,-51.1799525,South America,Cfa,Canoas,0
Morocco,33.5945144,-7.6200284,Africa,BSh,Casablanca,0
Italy,37.5023612,15.0873718,Europe,Csa,Catania,0
Pakistan,32.932827,72.8629763,Asia,Cwa,Chakwal,0
China,31.8122623,119.9691539,Asia,Cfa,Changzhou,0
China,31.6261473,117.8854283,Asia,Cfa,Chaohu,0
China,41.5754767,120.4390738,Asia,Dwa,Chaoyang,0
China,40.7721353,118.163919,Asia,Dwa,Chengde,0
China,43.2564906,118.9759212,Asia,BSk,Chifeng,0
Japan,35.329479,139.405371,Asia,Cfa,Chigasaki,0
Chile,-36.6066616,-72.1033194,South America,Csb,Chillan,0
China,30.6671088,117.4859885,Asia,Cfa,Chizhou,0
Japan,35.660036,139.554815,Asia,Cfa,Chofu,0
China,33.5102147,119.134626,Asia,Cwa,Chuzhou,0
Portugal,40.2111931,-8.4294632,Europe,Csa,Coimbra,0
Chile,-36.8270795,-73.0502399,South America,Csb,Concepcion,0
Argentina,-31.3972539,-58.0173305,South America,Cfa,Concordia,0
Algeria,36.3641642,6.6084281,Africa,Csa,Constantine,0
Chile,-30.7546652,-70.9005536,South America,BWk,Coquimbo,0
Chile,-34.985368,-71.2393705,South America,Csb,Curico,0
Iraq,37.042257,43.0953954,Asia,Csa,Dahuk,0
Japan,34.710679,135.635478,Asia,Cfa,Daito,0
China,38.9181714,121.6282945,Asia,Dwa,Dalian,0
China,40.1237658,124.3821748,Asia,Dwa,Dandong,0
Pakistan,32.3323692,74.352516,Asia,Cwa,Daska,0
China,40.0919817,113.2951122,Asia,BSk,Datong,0
China,39.0186857,106.3630325,Asia,BWk,Dawukou,0
Egypt,31.0875714,31.5949593,Africa,BWh,Dekernes,0
Russia,42.057858,48.2887648,Europe,BSk,Derbent,0
Iran,32.3780257,48.4032064,Asia,BSh,Dezful,0
China,37.4363704,116.3534091,Asia,BSk,Dezhou,0
China,38.5112175,114.9970044,Asia,BSk,Dingzhou,0
Iran,30.8912178,52.68348756885578,Asia,BSk,Do Rud,0
China,41.7511576,123.5931891,Asia,Dwa,Dongling,0
China,32.8536216,120.3122464,Asia,Cfa,Dongtai,0
China,37.4334738,118.6689349,Asia,Cwa,Dongying,0
Spain,37.283689,-5.9226718,Europe,Csa,Dos Hermanas,0
China,43.3686205,128.2267987,Asia,Dwb,Dunhua,0
Tajikistan,38.585694700000005,68.7603746751885,Asia,Csa,Dushanbe,0
Japan,35.4543232,139.3894064,Asia,Cfa,Ebina,0
Egypt,29.340737,30.620104467964623,Africa,BWh,El Faiyûm,0
Egypt,30.9723517,31.1683002,Africa,BWh,El Mahalla El Kubra,0
Mexico,31.8658887,-116.602983,North America,BSk,Ensenada,0
Iran,32.6707877,51.6650002,Asia,BWk,Esfahan,0
Iran,35.5478513,51.2318676,Asia,BSk,Eslamshahr,0
China,30.3925379,114.8898988,Asia,Cfa,Ezhou,0
China,40.45,124.066667,Asia,Dwa,Fengcheng,0
Morocco,34.0346534,-5.0161926,Africa,Csa,Fez,0
Italy,41.50281055,15.452899609627728,Europe,BSk,Foggia,0
Japan,35.669,139.4777,Asia,Cfa,Fuchu,0
Spain,40.282476,-3.7923422,Europe,Csa,Fuenlabrada,0
Japan,35.362799,138.730781,Asia,Dfc,Fuji,0
Japan,34.8674167,138.2577222,Asia,Cfa,Fujieda,0
Japan,35.9083257,138.2026202,Asia,Dfb,Fujimi,0
Japan,35.2221369,138.6214683,Asia,Cfa,Fujinomiya,0
Japan,35.364842,139.465077,Asia,Cfa,Fujisawa,0
Japan,36.1915583,139.2810987,Asia,Cfa,Fukaya,0
Japan,34.4857039,133.3623097,Asia,Cfa,Fukuyama,0
Japan,35.699997,139.988668,Asia,Cfa,Funabashi,0
China,41.8011658,124.7459491,Asia,Dwa,Fushun,0
China,42.0151733,121.6452868,Asia,Dwa,Fuxin,0
China,32.8896,115.8149,Asia,Cwa,Fuyang,0
China,36.3654065,119.8005385,Asia,Cwa,Gaomi,0
Spain,40.3081807,-3.7302679,Europe,BSk,Getafe,0
Italy,40.9283217,14.2011232,Europe,Csa,Giugliano In Campania,0
Egypt,29.9870753,31.2118063,Africa,BWh,Gizeh,0
Iran,37.2492965,55.1659018,Asia,BSh,Gonbad E Qabus,0
Iran,36.8392776,54.4320858,Asia,BSh,Gorgan,0
Spain,37.1734995,-3.5995337,Europe,Csa,Granada,0
Brazil,-29.9440222,-50.9930938,South America,Cfa,Gravataí,0
China,31.6838156,113.8407641,Asia,Cfa,Guangshui,0
Brazil,-30.1130731,-51.329442,South America,Cfa,Guaíba,0
Pakistan,32.1525312,74.1933745,Asia,Cwa,Gujranwala,0
Pakistan,32.5686782,74.071481,Asia,Cwa,Gujrat,0
Armenia,40.78413735,43.84394146962765,Asia,Dfb,Gyumri,0
Japan,34.54158,135.599097,Asia,Cfa,Habikino,0
Japan,40.5122388,141.4882959,Asia,Cfa,Hachinohe,0
Japan,35.655389,139.3394669,Asia,Cfa,Hachioji,0
Japan,35.3746619,139.2420729,Asia,Cfa,Hadano,0
China,39.6905523,106.8177375,Asia,BWk,Haibowan,0
Japan,41.768793,140.729008,Asia,Cfa,Hakodate,0
Iran,34.9726302,48.6563818,Asia,Csa,Hamadan,0
Japan,34.7109786,137.7259431,Asia,Cfa,Hamamatsu,0
China,42.817404,93.5142008,Asia,BWk,Hami,0
Canada,43.2560802,-79.8728583,North America,Dfa,Hamilton,0
Japan,34.8938136,136.9369523,Asia,Cfa,Handa,0
China,36.6107711,114.4857072,Asia,BSk,Handan,0
China,39.361093,117.8748363,Asia,Dwa,Hangu,0
United States,41.764582,-72.6908547,North America,Cfa,Hartford,0
China,35.7494986,114.2912899,Asia,BSk,Hebi,0
China,31.8665676,117.281428,Asia,Cfa,Hefei,0
China,37.7364305,115.6677229,Asia,BSk,Hengshui,0
China,35.2477266,115.4464761,Asia,Cwa,Heze,0
Japan,35.254276,136.215376,Asia,Cfa,Hikone,0
Japan,34.8153529,134.6854793,Asia,Cfa,Himeji,0
Japan,35.6610715,139.4147051,Asia,Cfa,Hino,0
Japan,34.818215,135.659225,Asia,Cfa,Hirakata,0
Japan,35.357674,139.318278,Asia,Cfa,Hiratsuka,0
Japan,40.6030543,140.4640389,Asia,Cfa,Hirosaki,0
Japan,34.3917241,132.4517589,Asia,Cfa,Hiroshima,0
Japan,36.5991225,140.6504604,Asia,Cfa,Hitachi,0
Australia,-42.8825088,147.3281233,Oceania,Cfb,Hobart,0
Japan,34.0517226,131.5629141,Asia,Cfa,Hofu,0
China,40.8337963,111.6730788,Asia,BSk,Hohhot,0
China,29.8287906,113.4706905,Asia,Cfa,Honghu,0
China,35.6254159,111.362708,Asia,BSk,Houma,0
China,43.106389,126.975,Asia,Dwa,Huadian,0
China,33.956111,116.798056,Asia,Cwa,Huaibei,0
China,32.5866826,117.0130019,Asia,Cfa,Huainan,0
China,33.5511,119.1132,Asia,Cwa,Huaiyin,0
China,39.7316435,116.3290307,Asia,BSk,Huangcun,0
China,30.4369576,114.8750766,Asia,Cfa,Huangzhou,0
Spain,37.2575874,-6.9484945,Europe,Csa,Huelva,0
China,30.8942995,120.0851114,Asia,Cfa,Huzhou,0
Japan,34.816389,135.568611,Asia,Cfa,Ibaraki,0
Japan,35.497775,140.1156996,Asia,Cfa,Ichihara,0
Japan,35.729412,139.928568,Asia,Cfa,Ichikawa,0
Japan,35.304878,136.806915,Asia,Cfa,Ichinomiya,0
Japan,35.5147101,137.8219519,Asia,Cfb,Iida,0
Japan,34.6915267,135.6961681,Asia,Cfa,Ikoma,0
Iran,33.1545696,46.7576343,Asia,Csa,Ilam,0
Japan,34.0658182,132.9976758,Asia,Cfa,Imabari,0
Japan,35.240484,136.758964,Asia,Cfa,Inazawa,0
Iraq,36.1911744,44.0094145,Asia,Csa,Irbil,0
Japan,35.8358142,139.3909293,Asia,Cfa,Iruma,0
Japan,35.4023968,139.2996106,Asia,Cfa,Isehara,0
Japan,36.3111734,139.1968083,Asia,Cfa,Isesaki,0
Japan,38.4341281,141.3028087,Asia,Cfa,Ishinomaki,0
Pakistan,33.6938118,73.0651511,Asia,Cwa,Islamabad,0
Egypt,30.6043775,32.2770825,Africa,BWh,Ismailia,0
Japan,34.786159,135.407994,Asia,Cfa,Itami,0
Japan,37.0504227,140.8876338,Asia,Cfa,Iwaki,0
Japan,34.1664995,132.2191163,Asia,Cfa,Iwakuni,0
Japan,35.9500131,139.6943932,Asia,Cfa,Iwatsuki,0
Japan,34.43108,135.474789,Asia,Cfa,Izumi,0
Afghanistan,34.430195,70.460128,Asia,BWh,Jalalabad,0
India,32.7185614,74.8580917,Asia,Cwa,Jammu,0
Spain,37.9557275,-3.492055612037218,Europe,Csa,Jaén,0
Spain,36.6816936,-6.1377402,Europe,Csa,Jerez,0
Pakistan,32.9247256,73.719388,Asia,Cwa,Jhelum,0
China,31.9215518,120.2808847,Asia,Cfa,Jiangyin,0
China,36.2640866,120.0284928,Asia,Cwa,Jiaozhou,0
China,35.1375,113.143889,Asia,BSk,Jiaozuo,0
China,30.7474425,120.7510971,Asia,Cfa,Jiaxing,0
China,39.7722294,98.2885388,Asia,BWk,Jiayuguan,0
China,33.2619055,115.3540362,Asia,Cwa,Jieshou,0
China,36.670278,117.020833,Asia,Cwa,Jinan,0
China,38.449693,102.058389,Asia,BSk,Jinchang,0
China,35.415,116.587222,Asia,Cwa,Jining,0
China,40.7515443,120.8404789,Asia,Dwa,Jinxi,0
China,41.1087113,121.1186159,Asia,Dwa,Jinzhou,0
China,41.0741,122.9507,Asia,Dwa,Jiupu,0
Japan,37.1478816,138.2359501,Asia,Cfa,Joetsu,0
Afghanistan,34.5260109,69.1776838,Asia,BSk,Kabul,0
China,34.604167,114.497222,Asia,Cwa,Kaifeng,0
Japan,35.3995831,136.8485648,Asia,Cfa,Kakamigahara,0
Japan,34.786771,134.8498955,Asia,Cfa,Kakogawa,0
Japan,35.7766455,140.0007147,Asia,Cfa,Kamagaya,0
Japan,35.329564,139.54442,Asia,Cfa,Kamakura,0
Iran,35.8224892,50.9904681,Asia,BSk,Karaj,0
Japan,34.974678,137.002791,Asia,Cfa,Kariya,0
Iran,33.9876533,51.4428856,Asia,BWh,Kashan,0
China,39.4702981,75.9874816,Asia,BWk,Kashi,0
Japan,34.5094067,135.792955,Asia,Cfa,Kashihara,0
Japan,35.8676218,139.9756876,Asia,Cfa,Kashiwa,0
Japan,33.5326446,130.4713013,Asia,Cfa,Kasuga,0
Japan,35.273804,137.007459,Asia,Cfa,Kasugai,0
Japan,35.9757957,139.752019,Asia,Cfa,Kasukabe,0
Japan,35.9251145,139.4856927,Asia,Cfa,Kawagoe,0
Japan,35.8078228,139.7241054,Asia,Cfa,Kawaguchi,0
Japan,34.8699135,135.4147005,Asia,Cfa,Kawanishi,0
Japan,35.5305307,139.7028012,Asia,Cfa,Kawasaki,0
Morocco,34.26457,-6.570169,Africa,Csa,Kenitra,0
Iran,34.486732,46.80872698861859,Asia,Csa,Kermanshah,0
Iran,32.6938201,51.5254892,Asia,BWk,Khomeynishahr,0
Iran,33.4842109,48.3538276,Asia,Csa,Khorramabad,0
Iran,30.4333105,48.1779858,Asia,BWh,Khorramshahr,0
Iran,38.5504343,44.95354,Asia,BSk,Khoy,0
Tajikistan,40.2844189,69.6191669,Asia,BSk,Khujand,0
Iraq,35.4719308,44.3953896,Asia,BSh,Kirkuk,0
Japan,36.4055296,139.3310209,Asia,Cfa,Kiryu,0
Japan,35.3810808,139.9247334,Asia,Cfa,Kisarazu,0
Japan,34.4644,135.385237,Asia,Cfa,Kishiwada,0
Japan,33.8829996,130.8749015,Asia,Cfa,Kitakyushu,0
Japan,34.6932379,135.1943764,Asia,Cfa,Kobe,0
Japan,35.72522,139.476606,Asia,Cfa,Kodaira,0
Japan,35.7041083,139.5106759,Asia,Cfa,Koganei,0
Japan,35.709674,139.454224,Asia,Cfa,Kokubunji,0
Japan,35.3066073,136.934098,Asia,Cfa,Komaki,0
Japan,36.4032931,136.4495465,Asia,Cfa,Komatsu,0
Japan,35.344508,136.866742,Asia,Cfa,Konan,0
Japan,37.404937,140.333381,Asia,Cfa,Koriyama,0
China,41.673238,85.716234,Asia,BWk,Korla,0
Japan,35.8903993,139.7908633,Asia,Cfa,Koshigaya,0
Iran,33.533792,47.6078615,Asia,Csa,Kuhdasht,0
Japan,36.1472472,139.3886141,Asia,Cfa,Kumagaya,0
Japan,34.5850791,133.7719957,Asia,Cfa,Kurashiki,0
Japan,34.2484488,132.5652498,Asia,Cfa,Kure,0
Japan,33.3196545,130.5080625,Asia,Cfa,Kurume,0
Japan,35.0179088,135.96046,Asia,Cfa,Kusatsu,0
Japan,35.0666099,136.6843004,Asia,Cfa,Kuwana,0
Argentina,-34.9206797,-57.9537638,South America,Cfa,La Plata,0
Chile,-29.902631,-71.2520253,South America,BWk,La Serena,0
China,36.2150252,117.6698329,Asia,Cwa,Laiwu,0
China,36.9786591,120.7068644,Asia,Cwa,Laiyang,0
China,39.5302055,116.6926134,Asia,BSk,Langfang,0
China,36.474436,103.733224,Asia,BSk,Lanzhou,0
China,32.436328,111.756394,Asia,Cfa,Laohekou,0
China,29.6553895,91.1704736,Asia,BSk,Lasa,0
Italy,41.45952605,13.012591212188894,Europe,Csa,Latina,0
Spain,40.3281942,-3.76527,Europe,Csa,Leganés,0
Italy,42.7902166,10.340278678735023,Europe,Csa,Leghorn,0
Cyprus,34.6852901,33.0332657,Asia,Csa,Lemesos,0
China,36.4441808,115.9642007,Asia,BSk,Liaocheng,0
China,41.2742898,123.1695757,Asia,Dwa,Liaoyang,0
China,36.229963,111.381767,Asia,BSk,Linfen,0
China,36.8459198,115.7118439,Asia,BSk,Linqing,0
China,36.424719,114.204719,Asia,BSk,Linshui,0
China,39.711831,118.449539,Asia,Dwa,Linxi,0
China,35.7003215,103.2791334,Asia,Dwb,Linxia,0
Portugal,38.7077507,-9.1365919,Europe,Csa,Lisbon,0
Spain,41.6147605,0.6267842,Europe,BSk,Lleida,0
Spain,42.4661196,-2.4396676,Europe,Cfa,Logroño,0
China,42.76411,129.4205702,Asia,Dwb,Longjing,0
New Zealand,-41.2125751,174.9057626,Oceania,Cfb,Lower Hutt,0
China,31.736111,116.52,Asia,Cfa,Luan,0
China,37.8845246,114.6519713,Asia,BSk,Luancheng,0
China,33.688056,113.913056,Asia,Cwa,Luohe,0
China,31.6866105,118.5048377,Asia,Cfa,Maanshan,0
China,31.1708218,115.0159244,Asia,Cfa,Macheng,0
Japan,35.564193,139.442839,Asia,Cfa,Machida,0
Spain,40.4167047,-3.7035825,Europe,Csa,Madrid,0
Iran,36.7651739,45.7218136,Asia,Csa,Mahabad,0
Russia,42.9830241,47.5048717,Europe,BSk,Makhachkala,0
Pakistan,32.5846351,73.4914169,Asia,Cwa,Mandi Bahauddin,0
Iran,37.3913128,46.2435751,Asia,BSk,Maragheh,0
Iran,38.4306358,45.7741,Asia,BSk,Marand,0
Spain,36.508976,-4.88562,Europe,Csa,Marbella,0
Pakistan,34.1937969,72.0451467,Asia,Cfa,Mardan,0
Iran,35.5219063,46.1758889,Asia,Csa,Marivan,0
Morocco,31.6258257,-7.9891608,Africa,BSh,Marrakesh,0
France,43.2961743,5.3699525,Europe,Csa,Marseille,0
Iran,29.8565888,52.7803353,Asia,BSk,Marv Dasht,0
Iran,36.2974945,59.6059232,Asia,BSk,Mashhad,0
Iran,31.9598,49.2879,Asia,BSh,Masjed E Soleyman,0
Spain,41.5398348,2.4448926,Europe,Cfa,Mataró,0
Japan,34.580779,135.546552,Asia,Cfa,Matsubara,0
Japan,35.7879371,139.903177,Asia,Cfa,Matsudo,0
Japan,36.2382047,137.9687141,Asia,Cfa,Matsumoto,0
Japan,34.5868422,136.5412491,Asia,Cfa,Matsusaka,0
Argentina,-34.78709305,-68.43818677312292,South America,BSk,Mendoza,0
China,39.9389127,116.09504,Asia,BSk,Mentougou,0
Argentina,-34.6506717,-59.4317202,South America,Cfa,Mercedes,0
Italy,38.1937571,15.5542082,Europe,Csa,Messina,0
Iran,36.9695588,46.0993809,Asia,Csa,Miandoab,0
Pakistan,34.7725022,72.3606728,Asia,Cfa,Mingaora,0
China,36.716669,117.5,Asia,Cwa,Mingshui,0
Japan,35.8289993,139.8726811,Asia,Cfa,Misato,0
Japan,35.147361,138.948903,Asia,Cfa,Mishima,0
Libya,32.3745923,15.0905803,Africa,BSh,Misratah,0
Japan,35.685227,139.572916,Asia,Cfa,Mitaka,0
Japan,31.7196106,131.0612029,Asia,Cfa,Miyakonojo,0
Uruguay,-34.9058916,-56.1913095,South America,Cfa,Montevideo,0
Japan,34.746898,135.566663,Asia,Cfa,Moriguchi,0
Spain,37.9923795,-1.1305431,Europe,BSk,Murcia,0
Japan,35.712898,139.563534,Asia,Cfa,Musashino,0
Spain,36.7213028,-4.4216366,Europe,Csa,Málaga,0
Algeria,35.975204500000004,3.012350405608216,Africa,Csa,Médéa,0
Spain,40.3238525,-3.8649214,Europe,Csa,Móstoles,0
Morocco,35.1739922,-2.9281198,Africa,Csa,Nador,0
Japan,37.446996,138.8512199,Asia,Cfa,Nagaoka,0
Japan,35.8562314,139.9026259,Asia,Cfa,Nagareyama,0
Japan,35.1851045,136.8998438,Asia,Cfa,Nagoya,0
Russia,42.8246489,132.8926,Europe,Dwb,Nakhodka,0
Uzbekistan,41.0036287,71.2611952,Asia,BSk,Namangan,0
China,32.0438284,118.7788631,Asia,Cfa,Nanjing,0
China,41.03626,120.7689143,Asia,Dwa,Nanpiao,0
China,31.9827896,120.8904588,Asia,Cfa,Nantong,0
China,33.0010496,112.5292693,Asia,Cwa,Nanyang,0
Italy,40.8358846,14.2487679,Europe,Csa,Naples,0
Japan,35.670572,140.018956,Asia,Cfa,Narashino,0
Japan,35.7767683,140.3183376,Asia,Cfa,Narita,0
Argentina,-38.3695057,-69.832275,South America,Csb,Neuquen,0
United States,41.3082138,-72.9250518,North America,Cfa,New Haven,0
Japan,34.76751,135.633907,Asia,Cfa,Neyagawa,0
Iran,36.2105604,58.7922291,Asia,BSk,Neyshabur,0
Japan,37.6452283,138.7669125,Asia,Cfa,Niigata,0
Japan,33.9603497,133.2835899,Asia,Cfa,Niihama,0
Japan,35.7931194,139.5657258,Asia,Cfa,Niiza,0
Japan,34.7386033,135.3394138,Asia,Cfa,Nishinomiya,0
Japan,34.822498,137.069626,Asia,Cfa,Nishio,0
Japan,32.5823063,131.6649034,Asia,Cfa,Nobeoka,0
Japan,35.9549076,139.8748667,Asia,Cfa,Noda,0
New Zealand,-36.7661188,174.7232992,Oceania,Cfb,North Shore,0
Brazil,-29.6905705,-51.1429035,South America,Cfa,Novo Hamburgo,0
Japan,35.094699,138.866742,Asia,Cfa,Numazu,0
Japan,35.263676,139.150229,Asia,Cfa,Odawara,0
Japan,35.3671141,136.6179746,Asia,Cfa,Ogaki,0
Japan,34.950974,137.260842,Asia,Cfa,Okazaki,0
Japan,35.803601,139.238128,Asia,Cfa,Ome,0
Japan,33.047013,130.464155,Asia,Cfa,Omuta,0
Iran,37.548341,45.0667111,Asia,BSk,Orumiyeh,0
Chile,-40.5732371,-73.1358145,South America,Csb,Osorno,0
Japan,35.561206,139.715843,Asia,Cfa,Ota,0
Japan,36.3147373,139.800148,Asia,Cfa,Oyama,0
Italy,38.1112268,13.3524434,Europe,Csa,Palermo,0
Spain,39.58130105,2.709183392285786,Europe,Csa,Palma,0
Spain,42.8181992,-1.6440089,Europe,Cfb,Pamplona,0
Argentina,-31.733056,-60.529722,South America,Cfa,Parana,0
Iran,39.6461735,47.918551,Asia,BSk,Parsabad,0
United States,29.676111,-95.173889,North America,Cfa,Pasadena,0
India,32.2692452,75.6528858,Asia,Cwa,Pathankot,0
China,40.190632,116.412144,Asia,BSk,Peking,0
Brazil,-31.7699736,-52.3410161,South America,Cfa,Pelotas,0
France,42.6985304,2.8953121,Europe,Csa,Perpignan,0
Australia,-31.9558933,115.8605855,Oceania,Csa,Perth,0
Italy,43.1070321,12.402996209906489,Europe,Csa,Perugia,0
Italy,42.3102619,13.95759010584892,Europe,Cfa,Pescara,0
Pakistan,34.0123846,71.5787458,Asia,BSh,Peshawar,0
China,33.7374744,113.2981436,Asia,Cwa,Pingdingshan,0
China,35.22678,106.495648,Asia,Dwb,Pingliang,0
Egypt,31.263235,32.305505,Africa,BWh,Port Said,0
Portugal,41.1494512,-8.6107884,Europe,Csb,Porto,0
Brazil,-30.0324999,-51.2303767,South America,Cfa,Porto Alegre,0
China,39.6196998,122.3051303,Asia,Dwa,Pulandian,0
China,29.72817,113.8951222,Asia,Cfa,Puqi,0
China,35.7631348,115.0234071,Asia,BSk,Puyang,0
Tunisia,33.8374199,10.0336686,Africa,BWh,Qabis,0
Egypt,30.178875,31.206436,Africa,BWh,Qalyub,0
Iran,35.4421824,51.5697005,Asia,BSh,Qarchak,0
Iran,36.0156291,49.8398161,Asia,BSk,Qazvin,0
China,30.4049826,112.8940372,Asia,Cfa,Qianjiang,0
China,36.0637967,120.3192081,Asia,Cwa,Qingdao,0
China,39.9395724,119.5894129,Asia,Dwa,Qinhuangdao,0
Iran,34.6422939,50.8801184,Asia,BWh,Qom,0
Iran,37.1059638,58.509553,Asia,BSk,Quchan,0
South Africa,-31.891667,26.881944,Africa,BSk,Queenstown,0
Portugal,38.7604252,-9.2559895,Europe,Csa,Queluz,0
Chile,-33.0498135,-71.4415282,South America,Csb,Quilpue,0
Afghanistan,36.7175566,68.8672916,Asia,BSh,Qunduz,0
Morocco,34.02236,-6.8340222,Africa,Csa,Rabat,0
Iran,30.402184,55.9941776,Asia,BWh,Rafsanjan,0
Chile,-34.170249,-70.7407427,South America,Csb,Rancagua,0
Iran,37.2793607,49.5846102,Asia,Csa,Rasht,0
Pakistan,33.5914237,73.0535122,Asia,Cwa,Rawalpindi,0
Italy,38.1035389,15.6397556,Europe,Csa,Reggio Di Calabria,0
United States,37.935833,-122.347778,North America,Csb,Richmond,0
Argentina,-33.1237585,-64.3489782,South America,Cwa,Rio Cuarto,0
Brazil,-32.0334252,-52.0991297,South America,Cfa,Rio Grande,0
China,35.4178833,119.5213994,Asia,Cwa,Rizhao,0
Italy,41.8933203,12.4829321,Europe,Csa,Rome,0
Argentina,-32.9593609,-60.6617024,South America,Cfa,Rosario,0
Spain,41.5421013,2.1138977,Europe,Cfa,Sabadell,0
Libya,32.7543548,12.5733059,Africa,BSh,Sabratah,0
Iran,36.2134053,57.6808799,Asia,BWk,Sabzevar,0
Tunisia,34.7398,10.76,Africa,BSh,Safaqis,0
Japan,33.2185408,130.1296585,Asia,Cfa,Saga,0
Japan,35.56559,139.236215,Asia,Cfa,Sagamihara,0
Japan,35.9754168,139.4160114,Asia,Cfa,Saitama,0
Japan,34.5289178,135.5015548,Asia,Cfa,Sakai,0
Japan,38.9147229,139.8364101,Asia,Cfa,Sakata,0
Japan,35.7234619,140.2240158,Asia,Cfa,Sakura,0
Italy,40.41944165,15.310608468834516,Europe,Csa,Salerno,0
Uruguay,-31.3571565,-57.004446,South America,Cfa,Salto,0
Uzbekistan,39.6550017,66.9756954,Asia,Csa,Samarkand,0
Chile,-33.5922859,-70.7045838,South America,Csb,San Bernardo,0
Argentina,-41.1334421,-71.3098425,South America,Csb,San Carlos De Bariloche,0
Argentina,-33.2762202,-65.9515546,South America,Cwa,San Luis,0
Argentina,-33.066667,-68.316667,South America,BWk,San Martin,0
Argentina,-33.3277089,-60.2165909,South America,Cfa,San Nicolas,0
Argentina,-34.6126025,-68.330514,South America,BSk,San Rafael,0
Iran,35.3126047,46.9978639,Asia,Csa,Sanandaj,0
Japan,34.8889881,135.2284629,Asia,Cfa,Sanda,0
China,34.4228647,111.0489969,Asia,Cwa,Sanmenxia,0
Brazil,-29.714209,-52.4285807,South America,Cfa,Santa Cruz Do Sul,0
Argentina,-30.3154739,-61.1645076,South America,Cwa,Santa Fe,0
Brazil,-29.6860512,-53.8069214,South America,Cfa,Santa Maria,0
Brazil,-29.8197019,-51.1608722,South America,Cfa,Sapucaia,0
Iran,36.2427456,46.2705227,Asia,Csa,Saqqez,0
Iran,36.5659626,53.0586327,Asia,BSh,Sari,0
Japan,33.1799965,129.7152872,Asia,Cfa,Sasebo,0
Italy,40.7778499,8.9219725134863,Europe,Csa,Sassari,0
Iran,35.0196331,50.3652364,Asia,BWk,Saveh,0
Japan,35.8528971,139.4122999,Asia,Cfa,Sayama,0
Iran,35.3843145,54.6209302,Asia,BWk,Semnan,0
South Korea,37.5666791,126.9782914,Asia,Cwa,Seoul,0
Japan,35.240984,137.116187,Asia,Cfa,Seto,0
Portugal,38.5241783,-8.8932341,Europe,Csa,Setúbal,0
Spain,37.3886303,-5.9953403,Europe,Csa,Sevilla,0
China,36.8616265,114.5112915,Asia,BSk,Shahe,0
Iran,32.3257366,50.8497369,Asia,Csa,Shahr E Kord,0
Iran,32.0116032,51.8651719,Asia,BSk,Shahreza,0
Iran,36.4195026,54.9649915,Asia,BSk,Shahrud,0
China,31.2312707,121.4700152,Asia,Cfa,Shanghai,0
China,34.4168215,115.6507447,Asia,Cwa,Shangqiu,0
China,30.3144274,112.2524983,Asia,Cfa,Shashi,0
China,41.8026095,123.4279105,Asia,Dwa,Shenyang,0
Japan,33.9577116,130.9415455,Asia,Cfa,Shimonoseki,0
Iran,29.6060218,52.5378041,Asia,Csa,Shiraz,0
China,29.7228427,112.4189037,Asia,Cfa,Shishou,0
China,32.45269,110.560812,Asia,Cwa,Shiyan,0
China,38.9868531,106.3771974,Asia,BWk,Shizuishan,0
China,40.1487504,116.6538745,Asia,BSk,Shunyi,0
Pakistan,32.4935378,74.5411575,Asia,Cwa,Sialkot,0
Iran,29.4458687,55.6704717,Asia,BWk,Sirjan,0
Japan,35.8262233,139.8061784,Asia,Cfa,Soka,0
India,34.0747444,74.8204443,Asia,Cfa,Srinagar,0
Egypt,29.974498,32.537086,Africa,BWh,Suez,0
Japan,34.764884,135.51735,Asia,Cfa,Suita,0
China,41.6626981,123.3379327,Asia,Dwa,Sujiatun,0
Libya,31.2059625,16.5836206,Africa,BWh,Surt,0
Tunisia,35.8245,10.6346,Africa,BSh,Susah,0
China,31.3016935,120.5810725,Asia,Cfa,Suzhou,0
Japan,34.8817102,136.5836516,Asia,Cfa,Suzuka,0
Australia,-33.8698439,151.2082848,Oceania,Cfa,Sydney,0
Italy,37.0646139,15.2907196,Europe,Csa,Syracuse,0
Brazil,-29.7544405,-51.1516497,South America,Cfa,São Leopoldo,0
Iran,38.0738612,46.2978789,Asia,BSk,Tabriz,0
Japan,35.724463,139.404766,Asia,Cfa,Tachikawa,0
China,36.1999,117.0884,Asia,Cwa,Taian,0
China,37.870009,112.5452739,Asia,BSk,Taiyuan,0
China,32.456667,119.922778,Asia,Cfa,Taizhou,0
Japan,35.3329961,137.1319459,Asia,Cfa,Tajimi,0
Japan,36.7362147,137.0187306,Asia,Cfa,Takaoka,0
Japan,34.8659057,135.3257734,Asia,Cfa,Takarazuka,0
Japan,36.3220984,139.0032758,Asia,Cfa,Takasaki,0
Japan,34.8812905,135.6012398,Asia,Cfa,Takatsuki,0
Chile,-35.4265343,-71.6660322,South America,Csb,Talca,0
Chile,-36.7144863,-73.1141087,South America,Csb,Talcahuano,0
Egypt,31.0522251,31.3731608,Africa,BWh,Talkha,0
Japan,35.637188,139.443503,Asia,Cfa,Tama,0
Argentina,-37.3282887,-59.1356957,South America,Cfb,Tandil,0
China,39.0264297,117.634889,Asia,BSk,Tanggu,0
Morocco,35.7642313,-5.842961427833071,Africa,Csa,Tangier,0
China,37.3325,114.701389,Asia,BSk,Tangshan,0
Egypt,30.7833666,30.9982536,Africa,BWh,Tanta,0
Italy,40.54881555,17.08058012454743,Europe,Csa,Taranto,0
Libya,32.5442945,13.8410701,Africa,BSh,Tarhunah,0
Spain,41.1172364,1.2546057,Europe,BSk,Tarragona,0
Uzbekistan,41.3123363,69.2787079,Asia,Csa,Tashkent,0
New Zealand,-37.6859006,176.167505,Oceania,Cfb,Tauranga,0
Israel,32.0852997,34.7818064,Asia,Csa,Tel Aviv Yafo,0
Chile,-38.7362611,-72.590546,South America,Csb,Temuco,0
China,35.1139509,117.1600052,Asia,Cwa,Tengzhou,0
Uzbekistan,37.2442466,67.283151,Asia,BWh,Termiz,0
Italy,42.6539486,12.439652829139408,Europe,Csa,Terni,0
Spain,41.5629623,2.0100492,Europe,Cfa,Terrassa,0
China,39.1175488,117.1913008,Asia,BSk,Tianjin,0
China,30.6659683,113.1605599,Asia,Cfa,Tianmen,0
China,42.2895233,123.8394899,Asia,Dwa,Tieling,0
Japan,35.8175874,139.6778944,Asia,Cfa,Toda,0
Japan,35.7994271,139.4687478,Asia,Cfa,Tokorozawa,0
Japan,34.0510183,131.8020941,Asia,Cfa,Tokuyama,0
Japan,35.6821936,139.762221,Asia,Cfa,Tokyo,0
Japan,34.478781,135.595519,Asia,Cfa,Tondabayashi,0
China,34.8972729,108.9403845,Asia,BSk,Tongchuan,0
China,30.9057603,117.6141351,Asia,Cfa,Tongling,0
China,39.9146073,116.7231096,Asia,BSk,Tongzhou,0
Spain,40.4587767,-3.4793343,Europe,BSk,Torrejón De Ardoz,0
Japan,35.3555075,133.8678525,Asia,Cfa,Tottori,0
France,43.1257311,5.9304919,Europe,Csa,Toulon,0
Japan,34.769123,137.391461,Asia,Cfa,Toyohashi,0
Japan,34.827644,137.378586,Asia,Cfa,Toyokawa,0
Japan,34.7862025,135.4737093,Asia,Cfa,Toyonaka,0
Japan,35.15195,137.301478,Asia,Cfa,Toyota,0
Argentina,-43.2531242,-65.3094407,South America,BWk,Trelew,0
Libya,32.896672,13.1777923,Africa,BSh,Tripoli,0
Japan,36.0786297,140.2045934,Asia,Cfa,Tsuchiura,0
Japan,36.0833265,140.077279,Asia,Cfa,Tsukuba,0
Libya,32.0773764,23.9599988,Africa,BWh,Tubruq,0
Tunisia,36.8002068,10.1857757,Africa,Csa,Tunis,0
Morocco,35.570175,-5.3742776,Africa,Csa,Tétouan,0
Turkmenistan,39.0733839,63.5831564,Asia,BWk,Türkmenabat,0
Japan,33.9518498,131.2472243,Asia,Cfa,Ube,0
Japan,36.4021192,138.2490506,Asia,Cfa,Ueda,0
Japan,34.9076565,135.8153009596323,Asia,Cfa,Uji,0
Japan,35.6530518,139.9018495,Asia,Cfa,Urayasu,0
Brazil,-29.7560726,-57.0867546,South America,Cfa,Uruguaiana,0
Chile,-39.8141262,-73.2459859,South America,Csb,Valdivia,0
Spain,41.6521328,-4.728562,Europe,Csa,Valladolid,0
Chile,-32.5976089,-70.8529753,South America,Csb,Valparaiso,0
Armenia,40.8112384,44.4851821,Asia,Dfb,Vanadzor,0
Iran,35.3283255,51.6460307,Asia,BWh,Varamin,0
Brazil,-30.0819338,-51.0261927,South America,Cfa,Viamão,0
Spain,42.2376602,-8.7247205,Europe,Csb,Vigo,0
Chile,-33.0244535,-71.5517636,South America,Csb,Vina Del Mar,0
Spain,42.8465088,-2.6724025,Europe,Cfb,Vitoria,0
Pakistan,33.7863064,72.7267564,Asia,Cwa,Wah,0
Algeria,35.62158615,-0.7016142676845641,Africa,BSh,Wahran,0
New Zealand,-36.8911394,174.4381957,Oceania,Cfb,Waitakere,0
Algeria,30.9980145,6.766453639443059,Africa,BWh,Warqla,0
United States,41.5538091,-73.0438362,North America,Cfa,Waterbury,0
Pakistan,32.433995249999995,74.13088162810784,Asia,Cwa,Wazirabad,0
China,36.7071591,119.1557441,Asia,Cwa,Weifang,0
China,37.5120997,122.1152599,Asia,Cwa,Weihai,0
China,34.5169112,109.4643291,Asia,BSk,Weinan,0
New Zealand,-41.2887953,174.7772114,Oceania,Cfb,Wellington,0
China,37.193611,122.051111,Asia,Cwa,Wencheng,0
Australia,-34.4278083,150.893054,Oceania,Cfa,Wollongong,0
China,39.5279836,106.7019803,Asia,BWk,Wuda,0
China,30.5951051,114.2999353,Asia,Cfa,Wuhan,0
China,31.1800568,118.2141777,Asia,Cfa,Wuhu,0
China,37.928881,102.6359886,Asia,BWk,Wuwei,0
China,31.5776626,120.2952752,Asia,Cfa,Wuxi,0
China,29.847035,115.5562861,Asia,Cfa,Wuxue,0
China,34.2658,108.9541,Asia,BSk,Xian,0
China,32.010998,112.1163785,Asia,Cfa,Xiangfan,0
China,30.3625,113.4545,Asia,Cfa,Xiantao,0
China,34.3323227,108.7128495,Asia,BSk,Xianyang,0
China,34.815,117.1331,Asia,Cwa,Xiazhen,0
China,37.0616519,114.499746,Asia,BSk,Xingtai,0
China,36.824463,101.440811,Asia,BSk,Xining,0
China,34.599719,119.159439,Asia,Cwa,Xinpu,0
China,35.9094557,117.7620286,Asia,Cwa,Xintai,0
China,35.308611,114.051111,Asia,BSk,Xinxiang,0
China,32.075,114.853333,Asia,Cfa,Xinyang,0
China,38.76502,112.385805,Asia,Dwb,Xinzhou,0
China,40.6067217,115.072195,Asia,BSk,Xuanhua,0
China,30.9486697,118.7514279,Asia,Cfa,Xuanzhou,0
China,34.0457133,113.8225908,Asia,Cwa,Xuchang,0
China,34.2665258,117.1810431,Asia,Cwa,Xuzhou,0
Japan,35.722537,140.0995131,Asia,Cfa,Yachiyo,0
Japan,34.830312,138.30381,Asia,Cfa,Yaizu,0
China,36.65,109.493889,Asia,BSk,Yanan,0
China,33.349559,120.1577019,Asia,Cfa,Yancheng,0
China,32.3968554,119.4077658,Asia,Cfa,Yangzhou,0
China,42.9047508,129.50441,Asia,Dwb,Yanji,0
China,37.461928,121.4425255,Asia,Cwa,Yantai,0
Japan,34.626275,135.605845,Asia,Cfa,Yao,0
Japan,32.5081425,130.6020211,Asia,Cfa,Yatsushiro,0
Iran,32.0406164,54.6657189,Asia,BWk,Yazd,0
Armenia,40.1777112,44.5126233,Asia,Dfa,Yerevan,0
China,36.696667,118.479722,Asia,Cwa,Yidu,0
China,38.4852037,106.2261926,Asia,BWk,Yinchuan,0
China,40.6747155,122.2357736,Asia,Dwa,Yingkou,0
China,31.1654737,112.5849805,Asia,Cfa,Yingzhong,0
China,32.2750989,119.1790898,Asia,Cfa,Yizheng,0
Japan,34.9648428,136.624845,Asia,Cfa,Yokkaichi,0
Japan,35.2730564,139.6653829,Asia,Cfa,Yokosuka,0
Japan,35.4276408,133.331459,Asia,Cfa,Yonago,0
China,37.617838,112.846727,Asia,BSk,Yuci,0
China,35.027637,111.002141,Asia,BSk,Yuncheng,0
Japan,35.4865288,139.3877657,Asia,Cfa,Zama,0
Iran,36.515854,48.4777616,Asia,Dsb,Zanjan,0
China,32.1307686,112.7665716,Asia,Cwa,Zaoyang,0
China,34.8108822,117.3178922,Asia,Cwa,Zaozhuang,0
Spain,41.6521342,-0.8809428,Europe,BSk,Zaragoza,0
China,36.806232,118.0118881,Asia,Cwa,Zhangdian,0
China,40.8171433,114.8782861,Asia,BSk,Zhangjiakou,0
China,37.359167,120.396389,Asia,Cwa,Zhaocheng,0
China,32.939167,119.834167,Asia,Cfa,Zhaoyang,0
China,32.1891959,119.4200069,Asia,Cfa,Zhenjiang,0
China,36.8029113,117.8639989,Asia,Cwa,Zhoucun,0
China,33.808333,114.911944,Asia,Cwa,Zhoukou,0
China,35.9957253,119.4041185,Asia,Cwa,Zhucheng,0
China,33.0115818,114.0164565,Asia,Cwa,Zhumadian,0
China,39.4833502,115.96858,Asia,BSk,Zhuozhou,0
China,35.324398849999994,116.92877358978905,Asia,Cwa,Zouxian,0
Libya,32.9327858,12.0806069,Africa,BWh,Zuwarah,0
China,43.419754,87.319461,Asia,BSk,Ürümqi,0
Nigeria,5.1128008,7.3651376,Africa,Am,Aba,1
Nigeria,6.3208897,8.1133202,Africa,Aw,Abakaliki,1
Côte D'Ivoire,6.7269042,-3.4968431,Africa,Aw,Abengourou,1
Nigeria,7.1547129,3.3467344,Africa,Aw,Abeokuta,1
Côte D'Ivoire,5.320357,-4.016107,Africa,Aw,Abidjan,1
Benin,6.51096225,2.3303076367454025,Africa,Aw,Abomey Calavi,1
Nigeria,9.0643305,7.4892974,Africa,Aw,Abuja,1
Venezuela,9.5507961,-69.2032823,South America,Aw,Acarigua,1
Ghana,5.5571096,-0.2012376,Africa,Aw,Accra,1
Ethiopia,9.0358287,38.7524127,Africa,Cwb,Addis Abeba,1
Yemen,12.833333,44.916667,Asia,BWh,Aden,1
Indonesia,-6.9351,109.1298,Asia,Am,Adiwerna,1
Côte D'Ivoire,5.931283,-4.2106525,Africa,Aw,Agboville,1
Nigeria,7.2525595,5.1932647,Africa,Aw,Akure,1
Brazil,-12.133526,-38.420772,South America,Am,Alagoinhas,1
India,13.00282155,80.17191860222883,Asia,Aw,Alandur,1
India,9.4980001,76.333482,Asia,Am,Alappuzha,1
Malaysia,6.1231908,100.3683962,Asia,Am,Alor Setar,1
Nigeria,5.7833137,7.8333364,Africa,Aw,Amaigbo,1
Ecuador,-1.2422413,-78.6287594,South America,Cfb,Ambato,1
India,13.1193746,80.1507648,Asia,Aw,Ambattur,1
Indonesia,-3.6959434,128.178785,Asia,Af,Ambon,1
India,12.7929067,78.6999168287325,Asia,Aw,Ambur,1
Venezuela,9.432191,-64.466834,South America,Aw,Anaco,1
Brazil,-1.374035,-48.4016623,South America,Af,Ananindeua,1
Philippines,15.1389351,120.5875321,Asia,Aw,Angeles,1
Philippines,14.5871972,121.1759246,Asia,Am,Antipolo,1
Côte D'Ivoire,5.4958898,-4.056921,Africa,Aw,Anyama,1
El Salvador,13.8013036,-89.1790784,North America,Aw,Apopa,1
Brazil,-10.9162061,-37.0774655,South America,As,Aracaju,1
Brazil,-7.193241,-48.2018597,South America,Aw,Araguaína,1
Brazil,-9.754866,-36.661471,South America,As,Arapiraca,1
Indonesia,-6.64465925,108.41453171976391,Asia,Am,Arjawinangun,1
Colombia,4.536307,-75.6723751,South America,Af,Armenia,1
Tanzania,-3.3696827,36.6880794,Africa,Cwa,Arusha,1
Indonesia,-6.7903546,108.6193921,Asia,Am,Astanajapura,1
India,13.1194809,80.1026704,Asia,Aw,Avadi,1
Ethiopia,7.0481029,38.47861,Africa,Aw,Awassa,1
Nigeria,6.218947,7.0774372,Africa,Aw,Awka,1
Peru,-14.0,-74.0,South America,Cwb,Ayacucho,1
Malaysia,5.4018648,100.2778327,Asia,Af,Ayer Itam,1
Nigeria,10.4428,12.1175,Africa,Aw,Azare,1
Indonesia,-6.9329907,107.5765974,Asia,Af,Babakan,1
Vietnam,9.3298341,105.509946,Asia,Aw,Bac Lieu,1
Philippines,10.6762836,122.9513786,Asia,Am,Bacolod,1
Philippines,14.458816,120.959579,Asia,Am,Bacoor,1
Cameroon,5.4758844,10.4217852,Africa,Aw,Bafoussam,1
Philippines,16.4119905,120.5933719,Asia,Am,Baguio,1
Ethiopia,11.5949663,37.3882251,Africa,Cwa,Bahir Dar,1
Indonesia,-1.2398711,116.8593379,Asia,Af,Balikpapan,1
Philippines,14.9542259,120.9009172,Asia,Am,Baliuag,1
Nigeria,11.54544,14.0064277,Africa,BSh,Bama,1
Mali,12.61326555,-7.984739136241295,Africa,Aw,Bamako,1
Cameroon,5.9614117,10.1516505,Africa,Aw,Bamenda,1
Indonesia,5.5528455,95.3192908,Asia,Af,Banda Aceh,1
Malaysia,2.0425046,102.5658852,Asia,Af,Bandar Maharani,1
Malaysia,1.8472584,102.9346697,Asia,Af,Bandar Penggaram,1
Congo (Democratic Republic Of The),-3.3168,17.379,Africa,Aw,Bandundu,1
Indonesia,-6.9215529,107.6110212,Asia,Af,Bandung,1
India,12.9767936,77.590082,Asia,Aw,Bangalore,1
Thailand,13.7524938,100.4935089,Asia,Aw,Bangkok,1
Central African Republic,4.3635118,18.5835913,Africa,Aw,Bangui,1
Indonesia,-5.6416767,105.1073324,Asia,Af,Banjaran,1
Indonesia,-3.3187496,114.5925828,Asia,Af,Banjarmasin,1
Indonesia,-8.3325711,114.14157903949864,Asia,Af,Banyuwangi,1
Venezuela,8.1739775,-69.97555523248431,South America,Aw,Barinas,1
Venezuela,10.0774374,-69.3222293,South America,Aw,Barquisimeto,1
Colombia,7.0673313,-73.8525627,South America,Am,Barrancabermeja,1
Colombia,10.9938698,-74.7927177,South America,Aw,Barranquilla,1
Brazil,-12.1440031,-44.9967406,South America,Aw,Barreiras,1
Venezuela,10.4350067,-66.8734682,South America,Aw,Baruta,1
Equatorial Guinea,1.82385155,9.856166243652916,Africa,Am,Bata,1
Philippines,13.9146826,121.0867566,Asia,Am,Batangas,1
Indonesia,-4.1270552,104.1619482,Asia,Af,Baturaja,1
Nigeria,10.6228284,10.0287754,Africa,Aw,Bauchi,1
Indonesia,-6.2349858,106.9945444,Asia,Af,Bekasi,1
Indonesia,3.783056,98.690556,Asia,Af,Belawan,1
Colombia,6.334997,-75.5582665,South America,Cfb,Bello,1
Brazil,-1.45056,-48.4682453,South America,Af,Belém,1
Indonesia,-3.5186763,102.5359834,Asia,Af,Bengkulu,1
Angola,-12.9104657,14.0356608,Africa,Aw,Benguela,1
Somalia,10.4386215,45.0134007,Africa,BWh,Berbera,1
Cameroon,4.5776155,13.6843792,Africa,Aw,Bertoua,1
India,13.84,75.702,Asia,Aw,Bhadravati,1
Nigeria,9.083333,6.016667,Africa,Aw,Bida,1
Philippines,14.4647563,121.1923358,Asia,Am,Binangonan,1
Indonesia,3.6063964,98.4899865,Asia,Af,Binjai,1
Malaysia,3.1874261,113.0472803,Asia,Af,Bintulu,1
Nigeria,12.4573462,4.2006114,Africa,BSh,Birnin Kebbi,1
Guinea Bissau,11.861324,-15.583055,Africa,Aw,Bissau,1
Indonesia,1.44344,125.1940836,Asia,Af,Bitung,1
Vietnam,10.9509538,106.8226134,Asia,Aw,Biên Hòa,1
Indonesia,-8.0982442,112.1650769,Asia,Am,Blitar,1
Brazil,2.8208478,-60.6719582,South America,Aw,Boa Vista,1
Burkina Faso,11.1765796,-4.2961436,Africa,Aw,Bobo Dioulasso,1
Indonesia,-6.5962986,106.7972421,Asia,Af,Bogor,1
Colombia,4.6529539,-74.0835643,South America,Cfb,Bogotá,1
Benin,7.1816331,2.0695683,Africa,Aw,Bohicon,1
Congo (Democratic Republic Of The),-5.8396,13.0703,Africa,Aw,Boma,1
Indonesia,0.1236548,117.471708,Asia,Af,Bontang,1
Côte D'Ivoire,7.6906058,-5.0298408,Africa,Aw,Bouaké,1
Congo,-4.1875125,15.262788,Africa,Aw,Brazzaville,1
Indonesia,-7.05207115,108.88813597074842,Asia,Am,Brebes,1
Gambia,13.25851295,-16.499703945251284,Africa,As,Brikama,1
Colombia,7.16698415,-73.1047294009737,South America,Am,Bucaramanga,1
Colombia,3.8881929,-77.0738324,South America,Af,Buenaventura,1
Colombia,3.9000578,-76.302013,South America,Am,Buga,1
Nigeria,4.7340705,6.863451,Africa,Am,Bugama,1
Burundi,-3.3638125,29.3675028,Africa,BSh,Bujumbura,1
Congo (Democratic Republic Of The),-2.4982396,28.8549055,Africa,Aw,Bukavu,1
Malaysia,5.364244,100.4609767,Asia,Af,Bukit Mertajam,1
Philippines,15.0864351,120.6663126,Asia,Aw,Bulaon,1
Vietnam,12.6796827,108.0447368,Asia,Aw,Buon Me Thuot,1
Congo (Democratic Republic Of The),0.114,29.3018,Africa,Cfb,Butembo,1
Malaysia,5.3933618,100.366572,Asia,Af,Butterworth,1
Philippines,8.9483324,125.5369442,Asia,Af,Butuan,1
Nigeria,6.3330586,5.6221058,Africa,Am,Bénin,1
Philippines,15.4905045,120.9684264,Asia,Am,Cabanatuan,1
Venezuela,10.395075,-71.4414049,South America,Aw,Cabimas,1
Venezuela,10.0260507,-69.2436557,South America,Aw,Cabudare,1
Philippines,10.956652,123.3057034,Asia,Af,Cadiz,1
Philippines,8.4756417,124.6421532,Asia,Af,Cagayan De Oro,1
Venezuela,10.1796632,-67.4606765,South America,Aw,Cagua,1
Philippines,14.5780161,121.1163072,Asia,Am,Cainta,1
Peru,-6.25,-78.833333,South America,Cfb,Cajamarca,1
Nigeria,4.9795999,8.3373597,Africa,Am,Calabar,1
Venezuela,8.9179829,-67.4173328,South America,Aw,Calabozo,1
Philippines,14.2060217,121.1556496,Asia,Am,Calamba,1
Colombia,3.4108435,-76.58121271109312,South America,Af,Cali,1
Vietnam,11.9166696,109.14861,Asia,Aw,Cam Ranh,1
Brazil,-8.0213832,-34.9810768,South America,Am,Camaragibe,1
Brazil,-12.6998188,-38.3260762,South America,Af,Camaçari,1
Brazil,-7.2246743,-35.8771292,South America,As,Campina Grande,1
Vietnam,10.0364634,105.7875821,Asia,Aw,Can Tho,1
Ghana,5.107467,-1.2430793,Africa,Aw,Cape Coast,1
Venezuela,10.5060934,-66.9146008,South America,Cfb,Caracas,1
Colombia,10.4265566,-75.5441671,South America,Aw,Cartagena,1
Colombia,4.71065925,-75.93238750220385,South America,Af,Cartago,1
Brazil,-8.2829702,-35.9722852,South America,As,Caruaru,1
Venezuela,10.6493808,-63.2542332,South America,Aw,Carúpano,1
Brazil,-1.2927031,-47.9223903,South America,Af,Castanhal,1
Venezuela,10.5992669,-67.0145106,South America,BSh,Catia La Mar,1
Brazil,-3.7300563,-38.6593082,South America,As,Caucaia,1
Philippines,14.2554073,120.8671503,Asia,Am,Cavite,1
Brazil,-4.858889,-43.355833,South America,Aw,Caxias,1
Philippines,10.2931062,123.9020773,Asia,Af,Cebu,1
Venezuela,10.2456598,-66.8586608,South America,Aw,Charallave,1
Sri Lanka,9.6579014,80.1643076,Asia,As,Chavakachcheri,1
Peru,-6.7716146,-79.8387175,South America,BWh,Chiclayo,1
India,13.318014,75.7738743,Asia,Aw,Chikmagalur,1
Peru,-9.0744966,-78.593609,South America,BWh,Chimbote,1
Nicaragua,12.77779615,-87.26958404801493,North America,Aw,Chinandega,1
Zambia,-12.5474926,27.8600422,Africa,Cwa,Chingola,1
India,14.2266443,76.4005122,Asia,BSh,Chitradurga,1
Thailand,13.1857117,101.1210777,Asia,Aw,Chon Buri,1
Peru,-11.9367735,-76.6969111,South America,BWk,Chosica,1
Indonesia,-7.3266659,108.3531111,Asia,Am,Ciamis,1
Indonesia,-6.57900005,106.70201811631512,Asia,Af,Ciampea,1
Indonesia,-6.8246244,107.14268481408372,Asia,Af,Cianjur,1
Indonesia,-6.9226316,107.5952567,Asia,Af,Cibadak,1
Indonesia,-6.4803942,106.8247344,Asia,Af,Cibinong,1
Indonesia,-6.2618245,107.0837982,Asia,Af,Cibitung,1
Indonesia,-6.9815914,107.8327237,Asia,Am,Cicalengka,1
Indonesia,-6.4064976,107.4588164,Asia,Am,Cikampek,1
Indonesia,-6.2554707,107.1461953,Asia,Af,Cikarang,1
Indonesia,-6.21799745,106.5170844864499,Asia,Af,Cikupa,1
Indonesia,-6.017389,106.0537688,Asia,Af,Cilegon,1
Indonesia,-6.3982206,106.98189239498828,Asia,Af,Cileungsi,1
Indonesia,-6.9427478,107.75341,Asia,Am,Cileunyi,1
Indonesia,-6.8731527,107.5423099,Asia,Af,Cimahi,1
Indonesia,-6.5356494,107.1762101,Asia,Af,Ciomas,1
Indonesia,-7.0294449,107.7102078,Asia,Am,Ciparay,1
Indonesia,-6.31107785,106.71841089195784,Asia,Af,Ciputat,1
Indonesia,-6.7137044,108.5608483,Asia,Am,Cirebon,1
Indonesia,-6.7093978,107.6579969,Asia,Af,Cisaat,1
Indonesia,-6.70841215,106.96227504141362,Asia,Af,Cisarua,1
Indonesia,-6.546294,105.6999768,Asia,Af,Citeureup,1
Venezuela,8.1028532,-63.5469562,South America,Aw,Ciudad Bolívar,1
Venezuela,8.3223763,-62.6896622,South America,Aw,Ciudad Guayana,1
Guinea,9.5170602,-13.6998434,Africa,Am,Conakry,1
Venezuela,11.4055796,-69.6679115,South America,BSh,Coro,1
Philippines,7.27,124.86,Asia,Af,Cotabato,1
Benin,6.3676953,2.4252507,Africa,Aw,Cotonou,1
Ecuador,-2.8974072,-79.0041726,South America,Cfb,Cuenca,1
Venezuela,10.4495706,-64.1578046,South America,Aw,Cumaná,1
Indonesia,-6.23713985,106.5670201002164,Asia,Af,Curug,1
Peru,-13.5170887,-71.9785356,South America,Cwb,Cusco,1
Vietnam,9.0180177,105.0869724,Asia,Am,Cà Mau,1
Venezuela,10.1653676,-66.8865117,South America,Aw,Cúa,1
Colombia,8.07761875,-72.46890019811272,South America,Af,Cúcuta,1
Vietnam,11.9473902,108.4342989,Asia,Cwb,Da Lat,1
Philippines,6.1162742,125.1760178,Asia,Af,Dadiangas,1
Philippines,16.043021,120.3337627,Asia,Am,Dagupan,1
Côte D'Ivoire,6.8766904,-6.4516096,Africa,Aw,Daloa,1
Nigeria,11.747,11.9608,Africa,BSh,Damaturu,1
Tanzania,-6.8160837,39.2803583,Africa,Aw,Dar Es Salaam,1
Philippines,14.3270819,120.9370871,Asia,Am,Dasmariñas,1
Philippines,7.0648306,125.6080623,Asia,Af,Davao,1
Burma,14.0797232,98.1990191,Asia,Am,Dawei,1
Ethiopia,10.5854867,35.7919701,Africa,Cwb,Debre Zeyit,1
Indonesia,-8.6524973,115.2191175,Asia,Am,Denpasar,1
Indonesia,-6.40719,106.8158371,Asia,Af,Depok,1
Ethiopia,11.122604,39.634982,Africa,Cwb,Dese,1
Philippines,6.7440957,125.3555319,Asia,Af,Digos,1
India,10.3303299,78.0673979084697,Asia,Aw,Dindigul,1
Ethiopia,9.5913193,41.8566373,Africa,BSh,Dire Dawa,1
Côte D'Ivoire,5.8294045,-5.3592251,Africa,Aw,Divo,1
Benin,9.7106683,1.6651614,Africa,Aw,Djougou,1
Tanzania,-6.1791181,35.7468174,Africa,BSh,Dodoma,1
Colombia,3.3890813,-76.6229386,South America,Cfb,Dos Quebradas,1
Cameroon,4.0429408,9.706203,Africa,Am,Douala,1
Philippines,9.3054777,123.3080446,Asia,Am,Dumaguete,1
Indonesia,1.6631967,101.4470369,Asia,Af,Dumai,1
Cameroon,3.7990131,10.1265567,Africa,Am,Edéa,1
Venezuela,8.5524805,-71.2409192,South America,Cfb,Ejido,1
Nigeria,7.8999894,4.3167086,Africa,Aw,Ejigbo,1
Venezuela,10.1326932,-64.2576385,South America,Aw,El Limón,1
Honduras,15.47477905,-87.75599487884675,North America,Am,El Progreso,1
Venezuela,8.8862119,-64.2488754,South America,Aw,El Tigre,1
Kenya,0.5198329,35.2715481,Africa,Cfb,Eldoret,1
Nigeria,6.5536094,7.4143061,Africa,Aw,Enugu,1
Colombia,6.1701348,-75.587415,South America,Af,Envigado,1
India,11.3306483,77.7276519,Asia,BSh,Erode,1
Guatemala,14.3022857,-90.7866243,North America,Aw,Escuintla,1
Brazil,-12.2578934,-38.9598047,South America,As,Feira De Santana,1
Colombia,1.6158666,-75.6143045,South America,Af,Florencia,1
Colombia,7.0625358,-73.0858228,South America,Aw,Floridablanca,1
Brazil,-3.7304512,-38.5217989,South America,As,Fortaleza,1
Sierra Leone,8.479004,-13.26795,Africa,Am,Freetown,1
Nigeria,11.5232142,7.307497,Africa,Aw,Funtua,1
Côte D'Ivoire,6.1329749,-5.9517697,Africa,Aw,Gagnoa,1
Congo (Democratic Republic Of The),-6.7397,23.9477,Africa,Aw,Gandajika,1
Brazil,-8.8905889,-36.4930896,South America,As,Garanhuns,1
Cameroon,9.3070698,13.3934527,Africa,Aw,Garoua,1
Indonesia,-7.2162543,107.9014912,Asia,Am,Garut,1
Nigeria,7.37784815,8.871322377025628,Africa,Aw,Gboko,1
Nigeria,7.466667,4.35,Africa,Aw,Gbongan,1
Congo (Democratic Republic Of The),3.2516,19.777,Africa,Aw,Gemena,1
Guyana,6.8137426,-58.1624465,South America,Af,Georgetown,1
Colombia,4.306643,-74.8015665,South America,As,Girardot,1
Colombia,7.0732333,-73.1689196,South America,Am,Girón,1
Congo (Democratic Republic Of The),-1.6585,29.2205,Africa,Aw,Goma,1
Nigeria,10.43040185,11.206540782332173,Africa,Aw,Gombe,1
Ethiopia,12.610368,37.466766,Africa,Cwb,Gondar,1
Indonesia,0.7186174,122.4555927,Asia,Af,Gorontalo,1
Indonesia,-7.601111,110.818611,Asia,Am,Grogol,1
Venezuela,10.2172127,-67.8836179,South America,Aw,Guacara,1
Venezuela,9.0407855,-69.7412593,South America,Aw,Guanare,1
Venezuela,10.466288,-66.6078417,South America,Aw,Guarenas,1
Guatemala,15.5855545,-90.345759,North America,Af,Guatemala,1
Guatemala,14.6424667,-90.5131361,North America,Aw,Guatemala City,1
Venezuela,10.4684588,-66.5431115,South America,Aw,Guatire,1
Ecuador,-2.1900563,-79.8868741,South America,Aw,Guayaquil,1
India,11.54463755,76.49039213460495,Asia,Aw,Gudalur,1
Uganda,3.0199023,32.38825103502008,Africa,Aw,Gulu,1
Nigeria,12.1658358,6.6606398,Africa,Aw,Gusau,1
Nigeria,12.4526098,10.0418934,Africa,BSh,Hadejia,1
Philippines,14.8355035,120.7335206,Asia,Aw,Hagonoy,1
Somalia,9.561733,44.061803,Africa,BSh,Hargeysa,1
India,13.0070817,76.0992703,Asia,Aw,Hassan,1
Thailand,7.0074644,100.4689889,Asia,Am,Hat Yai,1
India,13.8306127,77.492635,Asia,BSh,Hindupur,1
Vietnam,10.7763897,106.7011391,Asia,Aw,Ho Chi Minh City,1
India,12.7328844,77.8309478,Asia,Aw,Hosur,1
Angola,-12.6076318,15.7411039,Africa,Cwb,Huambo,1
Peru,-12.068098,-75.2100953,South America,Cwb,Huancayo,1
Peru,-9.5,-75.833333,South America,Cfb,Huánuco,1
Nigeria,7.3777462,3.8972497,Africa,Aw,Ibadan,1
Colombia,4.4386033,-75.2108857,South America,Af,Ibagué,1
Ecuador,0.3520459,-78.1199716,South America,Csb,Ibarra,1
Yemen,14.1419291,44.1389849,Asia,BSh,Ibb,1
Nigeria,7.482824,4.5604451,Africa,Aw,Ife,1
Nigeria,8.844257,3.757991,Africa,Aw,Igboho,1
Nigeria,7.831735849999999,5.058355303718265,Africa,Aw,Ijero,1
Nigeria,7.491328,5.232248,Africa,Aw,Ikare,1
Nigeria,7.491328,5.232248,Africa,Aw,Ikere,1
Nigeria,7.716667,4.233333,Africa,Aw,Ikire,1
Nigeria,7.916667,4.666667,Africa,Aw,Ikirun,1
Nigeria,7.7888484,5.5050471,Africa,Aw,Ikole,1
Nigeria,6.6191233,3.5041271,Africa,Aw,Ikorodu,1
Nigeria,5.181975,7.7132177,Africa,Am,Ikot Ekpene,1
Nigeria,7.666667,4.666667,Africa,Aw,Ila,1
Nigeria,7.5989035,5.1057231,Africa,Aw,Ilawe,1
Congo (Democratic Republic Of The),-4.3254,20.5871,Africa,Aw,Ilebo,1
Nigeria,7.6245894,4.7414655,Africa,Aw,Ilesha,1
Brazil,-14.792599,-39.0453843,South America,Af,Ilhéus,1
Philippines,8.2281556,124.2411508,Asia,Af,Iligan,1
Nigeria,7.8408473,4.4853735,Africa,Aw,Ilobu,1
Philippines,10.9522168,122.5799456,Asia,Am,Iloilo,1
Nigeria,8.4963657,4.5480484,Africa,Aw,Ilorin,1
Brazil,-5.5269279,-47.478115,South America,Aw,Imperatriz,1
Indonesia,-6.3489,108.3287,Asia,Am,Indramayu,1
Nigeria,7.985087,4.645545,Africa,Aw,Inisa,1
Malaysia,4.5986817,101.0900236,Asia,Af,Ipoh,1
Peru,-3.749365,-73.2444145,South America,Af,Iquitos,1
Tanzania,-7.5662123,35.07448067667575,Africa,BSh,Iringa,1
Nigeria,6.4170528,4.2129931,Africa,Aw,Ise,1
Nigeria,7.9710106,3.5956141,Africa,Aw,Iseyin,1
Congo (Democratic Republic Of The),2.7722,27.6083,Africa,Af,Isiro,1
Brazil,-14.793173,-39.2750341,South America,Af,Itabuna,1
Colombia,6.1724352,-75.6093254,South America,Af,Itagüí,1
Nigeria,7.633333,4.183333,Africa,Aw,Iwo,1
Brazil,-8.1752476,-34.9468716,South America,Am,Jaboatão,1
Sri Lanka,9.665093,80.0093029,Asia,As,Jaffna,1
Indonesia,-6.175247,106.8270488,Asia,Af,Jakarta,1
Nigeria,8.8945377,11.3644261,Africa,Aw,Jalingo,1
Somalia,0.0785706,42.749732676236185,Africa,BSh,Jamame,1
Indonesia,-1.6394711,102.94542640112506,Asia,Af,Jambi,1
Indonesia,-8.1688563,113.7021772,Asia,Am,Jember,1
Brazil,-13.8604033,-40.0719627,South America,Aw,Jequié,1
Brazil,-10.8778148,-61.9277854,South America,Aw,Ji Paraná,1
Djibouti,11.8145966,42.8453061,Africa,BWh,Jibuti,1
Nigeria,9.2780486,12.4528047,Africa,Aw,Jimeta,1
Ethiopia,7.6756152,36.8478779,Africa,Cfb,Jimma,1
Malaysia,1.503555,103.7495586,Asia,Af,Johor Bahru,1
Philippines,6.0536561,121.0002644,Asia,Ocean,Jolo,1
Indonesia,-7.561464,112.24130435297604,Asia,Aw,Jombang,1
Nigeria,9.9175125,8.8979401,Africa,Aw,Jos,1
Brazil,-7.1215981,-34.882028,South America,As,João Pessoa,1
Brazil,-7.2153453,-39.3153336,South America,Aw,Juazeiro Do Norte,1
Sudan,4.85,31.6,Africa,Aw,Juba,1
Brazil,-9.4336959,-40.5068201,South America,BSh,Juàzeiro,1
Philippines,9.9889153,122.8134802,Asia,Am,Kabankalan,1
Nigeria,10.3825318,7.8533226,Africa,Aw,Kaduna,1
Congo (Democratic Republic Of The),-5.9127,29.1914,Africa,Aw,Kalemie,1
Sri Lanka,7.4131557,81.8269327,Asia,As,Kalmunai,1
Uganda,0.3177137,32.5813539,Africa,Af,Kampala,1
Congo (Democratic Republic Of The),-5.8975,22.4172,Africa,Aw,Kananga,1
India,12.9647163,79.9839686,Asia,Aw,Kanchipuram,1
Benin,11.2849785,3.046420881638551,Africa,Aw,Kandi,1
Sri Lanka,7.2931208,80.6350358,Asia,Af,Kandy,1
Guinea,10.6248355,-9.3175166,Africa,Aw,Kankan,1
Nigeria,11.8948389,8.5364136,Africa,Aw,Kano,1
Senegal,14.04807735,-16.015508291809287,Africa,BSh,Kaolack,1
Indonesia,-6.2179617,106.7071278,Asia,Af,Karang Tengah,1
Indonesia,-6.3050826,107.3002592,Asia,Am,Karawang,1
Nigeria,12.5630825,7.6207063,Africa,BSh,Katsina,1
Tanzania,-9.2218759,33.6390799,Africa,Cwa,Katumba,1
Indonesia,-7.6686894,109.6519465,Asia,Am,Kebumen,1
Indonesia,-7.8111057,112.0046051,Asia,Am,Kediri,1
Indonesia,-6.9723157,109.6502003,Asia,Am,Kedungwuni,1
Indonesia,-6.98,107.25,Asia,Af,Kemang,1
Indonesia,-3.9918068,122.5180066,Asia,Am,Kendari,1
Thailand,14.0650298,100.6454621,Asia,Aw,Khlong Luang,1
Rwanda,-1.950851,30.061507,Africa,Aw,Kigali,1
Tanzania,-4.5126571,30.0050533,Africa,Aw,Kigoma,1
Congo (Democratic Republic Of The),-5.0487,18.7839,Africa,Aw,Kikwit,1
Guinea,10.1154374,-13.1916883,Africa,Aw,Kindia,1
Congo (Democratic Republic Of The),-2.9492,25.9231,Africa,Am,Kindu,1
Congo (Democratic Republic Of The),-4.3033,15.3105,Africa,Aw,Kinshasa,1
Congo (Democratic Republic Of The),0.5185,25.2008,Africa,Af,Kisangani,1
Indonesia,2.9838982,99.6288041,Asia,Af,Kisaran,1
Nigeria,9.083333,3.85,Africa,Aw,Kishi,1
Somalia,-0.52111695,41.98535737338791,Africa,BSh,Kismayo,1
Kenya,-0.1029109,34.7541761,Africa,Af,Kisumu,1
Zambia,-12.8104186,28.2068361,Africa,Cwa,Kitwe,1
Malaysia,3.083333,101.416667,Asia,Af,Klang,1
Indonesia,-7.7124777,110.60305,Asia,Am,Klaten,1
Malaysia,2.0323472,103.3190766,Asia,Af,Kluang,1
India,9.9674277,76.2454436,Asia,Am,Kochi,1
Sierra Leone,8.642281,-10.971631,Africa,Aw,Koidu,1
India,13.1367201,78.1337246,Asia,Aw,Kolar,1
India,8.8879509,76.5955013,Asia,Am,Kollam,1
Côte D'Ivoire,9.4574719,-5.6342471,Africa,Aw,Korhogo,1
Philippines,6.5004067,124.8435427,Asia,Af,Koronadal,1
Malaysia,6.133333,102.25,Asia,Af,Kota Bahru,1
Malaysia,5.9780066,116.0728988,Asia,Af,Kota Kinabalu,1
Sri Lanka,6.8883219,79.9187415,Asia,Af,Kotte,1
Cameroon,12.0755638,15.0246194,Africa,BSh,Kousséri,1
Togo,6.9106565,0.6323982,Africa,Aw,Kpalimé,1
Indonesia,-6.148365549999999,106.40313771169048,Asia,Af,Kresek,1
Malaysia,3.1516964,101.6942371,Asia,Af,Kuala Lumpur,1
Malaysia,5.3296461,103.1383265,Asia,Af,Kuala Terengganu,1
Malaysia,3.7985637,103.32199,Asia,Af,Kuantan,1
Malaysia,1.5574127,110.3439862,Asia,Af,Kuching,1
Angola,-12.3831319,16.9425484,Africa,Cwb,Kuito,1
Malaysia,5.3707128,100.6172071,Asia,Af,Kulim,1
Ghana,6.6985605,-1.6233086,Africa,Aw,Kumasi,1
Cameroon,4.6026770500000005,9.413994909008665,Africa,Am,Kumba,1
India,10.9645549,79.37173036154906,Asia,Aw,Kumbakonam,1
Indonesia,-10.1632209,123.6017755,Asia,Aw,Kupang,1
Nigeria,8.4960459,8.5147636,Africa,Aw,Lafia,1
Nigeria,8.8536313,5.4188884,Africa,Aw,Lafiagi,1
Nigeria,6.4550575,3.3941795,Africa,Aw,Lagos,1
Malaysia,5.0215726,118.3275533,Asia,Af,Lahad Datu,1
Philippines,10.3126722,123.9488177,Asia,Af,Lapu Lapu,1
Indonesia,-7.8366237,112.6977587,Asia,Am,Lawang,1
Philippines,13.1388596,123.7343104,Asia,Af,Legaspi,1
Indonesia,-6.8111033,107.6171239,Asia,Af,Lembang,1
Indonesia,-7.4126406,108.1850556,Asia,Af,Leuwiliang,1
Gabon,0.4086518,9.4418849,Africa,Am,Libreville,1
Mozambique,-13.2999118,35.2458642,Africa,Cwa,Lichinga,1
Congo (Democratic Republic Of The),-10.9884,26.7379,Africa,Cwa,Likasi,1
Peru,-12.0621065,-77.0365256,South America,BWh,Lima,1
Philippines,13.9414686,121.1642877,Asia,Am,Lipa,1
Uganda,2.2456918,32.896244,Africa,Aw,Lira,1
Indonesia,-0.5876152,117.0887392,Asia,Af,Loa Janan,1
Angola,-12.3506867,13.5464318,Africa,BWh,Lobito,1
Ecuador,-4.0528506,-79.8053425,South America,Aw,Loja,1
Vietnam,10.3905437,105.4337523,Asia,Aw,Long Xuyên,1
Venezuela,10.3437382,-67.0453091,South America,Aw,Los Teques,1
Cameroon,4.7200545,9.7274994,Africa,Am,Loum,1
Angola,-8.8272699,13.2439512,Africa,BSh,Luanda,1
Zambia,-13.131866,28.4175195,Africa,Cwa,Luanshya,1
Angola,-14.9195617,13.4897509,Africa,Cwb,Lubango,1
Congo (Democratic Republic Of The),-11.6876,27.5026,Africa,Cwa,Lubumbashi,1
Philippines,13.9358509,121.6130954,Asia,Af,Lucena,1
Indonesia,-8.135205,113.2244162,Asia,Am,Lumajang,1
Philippines,15.2250826,120.5733815,Asia,Am,Mabalacat,1
Brazil,0.0401529,-51.0569588,South America,Am,Macapá,1
Brazil,-9.6476843,-35.7339264,South America,Am,Maceió,1
Ecuador,-3.2588565,-79.9588518,South America,BSh,Machala,1
India,13.57325965,78.47914644847344,Asia,Aw,Madanapalle,1
Indonesia,-7.61188765,111.67319262808836,Asia,Am,Madiun,1
India,13.0836939,80.270186,Asia,Aw,Madras,1
India,9.9261153,78.1140983,Asia,Aw,Madurai,1
Colombia,9.2412097,-74.7567413,South America,Aw,Magangué,1
Indonesia,-7.51361445,110.2145132553504,Asia,Am,Magelang,1
Colombia,11.4048743,-72.31316022980582,South America,Aw,Maicao,1
Nigeria,11.8395375,13.1536214,Africa,BSh,Maiduguri,1
India,12.3051828,76.6553609,Asia,Aw,Maisuru,1
Indonesia,-7.0495197,107.7615982,Asia,Am,Majalaya,1
Indonesia,-5.1342962,119.4124282,Asia,Am,Makasar,1
Philippines,14.5567949,121.0211226,Asia,Am,Makati,1
Nigeria,7.7312634,8.538425,Africa,Aw,Makurdi,1
Equatorial Guinea,3.741877,8.7740663,Africa,Am,Malabo,1
Sudan,9.5200246,31.65972249667214,Africa,BSh,Malakal,1
Colombia,10.8653387,-74.7746194,South America,Aw,Malambo,1
Indonesia,-7.9771206,112.6340291,Asia,Am,Malang,1
Philippines,14.843759,120.8113694,Asia,Aw,Malolos,1
Côte D'Ivoire,7.4090813,-7.5501702,Africa,Aw,Man,1
Indonesia,1.4900578,124.8408708,Asia,Af,Manado,1
Nicaragua,12.1544035,-86.2737642,North America,Aw,Managua,1
Brazil,-3.1316333,-59.9825041,South America,Af,Manaus,1
Philippines,10.3269049,123.9427295,Asia,Af,Mandaue,1
India,12.5238888,76.8961961,Asia,Aw,Mandya,1
India,12.8698101,74.8430082,Asia,Am,Mangaluru,1
Philippines,14.5906346,120.9799964,Asia,Am,Manila,1
Colombia,5.0743694,-75.50811667440546,South America,Af,Manizales,1
Ecuador,-1.0321138,-80.82236849673265,South America,BSh,Manta,1
Brazil,-5.3462821,-49.1007401,South America,Aw,Marabá,1
Venezuela,10.6498095,-71.6443596,South America,Aw,Maracaibo,1
Brazil,-3.8779438,-38.6247697,South America,As,Maracanaú,1
Venezuela,10.2375144,-67.5890216,South America,Aw,Maracay,1
Philippines,8.0047262,124.2854351,Asia,Af,Marawi,1
Venezuela,10.2891045,-67.7089327,South America,Aw,Mariara,1
Cameroon,10.7183422,14.411746630472145,Africa,BSh,Maroua,1
Indonesia,-3.4086465,114.848837,Asia,Af,Martapura,1
Nicaragua,11.99375775,-86.08818697722022,North America,Aw,Masaya,1
Congo (Democratic Republic Of The),-5.8509,13.4627,Africa,Aw,Matadi,1
Indonesia,-8.5837726,116.10685,Asia,Aw,Mataram,1
Venezuela,9.7422774,-63.1888854,South America,Aw,Maturín,1
Congo (Democratic Republic Of The),0.0266,18.2971,Africa,Af,Mbandaka,1
Tanzania,-8.6131228,33.3341957,Africa,Cwa,Mbeya,1
Cameroon,5.627374,10.254744,Africa,Aw,Mbouda,1
Congo (Democratic Republic Of The),-6.1307,23.5967,Africa,Aw,Mbuji Mayi,1
Indonesia,3.5896654,98.6738261,Asia,Af,Medan,1
Colombia,6.2697018,-75.60252574475943,South America,Cfb,Medellín,1
El Salvador,13.722484,-89.1869905,North America,Aw,Mejicanos,1
Malaysia,2.3293744,102.2880962,Asia,Af,Melaka,1
Burma,12.4319552,98.5955711,Asia,Am,Mergui,1
Indonesia,-5.1078839,105.3078642,Asia,Af,Metro,1
Philippines,14.7345008,120.9571635,Asia,Am,Meycauayan,1
Ecuador,-2.11796355,-79.5552041926201,South America,Aw,Milagro,1
Nigeria,9.6187093,6.5475752,Africa,Aw,Minna,1
Malaysia,4.392739,113.9880255,Asia,Af,Miri,1
Guatemala,14.6307175,-90.6061595,North America,Cwb,Mixco,1
Nigeria,7.383333,4.266667,Africa,Aw,Modakeke,1
Somalia,2.0349312,45.3419183,Africa,BSh,Mogadishu,1
Indonesia,-7.54133775,112.50949745736573,Asia,Aw,Mojokerto,1
Cameroon,10.74103,13.798742,Africa,Aw,Mokolo,1
Kenya,-4.05052,39.667169,Africa,As,Mombasa,1
Liberia,6.328034,-10.797788,Africa,Am,Monrovia,1
Philippines,14.7324746,121.1452701,Asia,Am,Montalban,1
Colombia,8.7509361,-75.8786806,South America,Aw,Montería,1
Sri Lanka,6.7746821,79.8826095,Asia,Af,Moratuwa,1
Tanzania,-7.0842931,37.4232686,Africa,Aw,Morogoro,1
Tanzania,-3.3486456,37.3435249,Africa,Aw,Moshi,1
Brazil,-5.1904332,-37.3443872,South America,As,Mossoró,1
Chad,8.5654637,16.073831,Africa,Aw,Moundou,1
Nigeria,10.267607,13.264359,Africa,Aw,Mubi,1
Zambia,-12.5512171,28.2408844,Africa,Cwa,Mufulira,1
Tanzania,-1.4998186,33.8083018,Africa,Aw,Musoma,1
Tanzania,-2.5196915,32.9014417,Africa,Aw,Mwanza,1
Congo (Democratic Republic Of The),-7.009,23.4538,Africa,Aw,Mwene Ditu,1
Vietnam,10.3606197,106.3658439,Asia,Aw,My Tho,1
Philippines,13.6240122,123.1850318,Asia,Af,Naga,1
India,8.1880471,77.4290492,Asia,Aw,Nagercoil,1
Kenya,-1.30261485,36.82884201813725,Africa,Cfb,Nairobi,1
Thailand,13.8918425,100.0165659,Asia,Aw,Nakhon Pathom,1
Thailand,8.6772337,99.7309635,Asia,Am,Nakhon Si Thammarat,1
Kenya,-0.2802724,36.0712048,Africa,Csb,Nakuru,1
Brazil,-5.805398,-35.2080905,South America,As,Natal,1
Ethiopia,8.5410261,39.2705461,Africa,Cwa,Nazret,1
Zambia,-12.9693056,28.6365894,Africa,Cwa,Ndola,1
Sri Lanka,7.2094282,79.833117,Asia,Am,Negombo,1
Colombia,2.9257038,-75.2893937,South America,As,Neiva,1
India,11.535987,79.4824392,Asia,Aw,Neyveli,1
Cameroon,7.37630995,13.596057761513098,Africa,Aw,Ngaoundéré,1
Vietnam,12.2431693,109.1898675,Asia,Aw,Nha Trang,1
Cameroon,4.9314698,10.065948429697189,Africa,Aw,Nkongsamba,1
Nigeria,6.15055,6.842826,Africa,Aw,Nkpor,1
Nigeria,6.019531,6.917181,Africa,Aw,Nnewi,1
Thailand,13.8610918,100.3456772,Asia,Aw,Nonthaburi,1
Brazil,-10.8553115,-37.1264863,South America,As,Nossa Senhora Do Socorro,1
Nigeria,6.8561,7.3927,Africa,Aw,Nsukka,1
El Salvador,13.70024185,-89.21729809898707,North America,Aw,Nueva San Salvador,1
Guinea,8.3925728,-8.8572519,Africa,Aw,Nzérékoré,1
Nigeria,6.095104,6.817734,Africa,Aw,Obosi,1
Ghana,6.211542,-1.6894045,Africa,Aw,Obuasi,1
Venezuela,10.1136963,-66.7757458,South America,Aw,Ocumare Del Tuy,1
Nigeria,8.1560008,4.7227435,Africa,Aw,Offa,1
Nigeria,8.133,4.25,Africa,Aw,Ogbomosho,1
Nigeria,4.692077599999999,7.0614744813187045,Africa,Am,Okrika,1
Brazil,-7.9986401,-34.8459552,South America,Am,Olinda,1
Philippines,14.8314675,120.2835205,Asia,Am,Olongapo,1
Nigeria,7.0209686,5.0567477,Africa,Aw,Ondo,1
Nigeria,6.1461619,6.8019088,Africa,Aw,Onitsha,1
Nigeria,4.564844,7.547802,Africa,Am,Opobo,1
Nigeria,4.8169432,8.2369999,Africa,Am,Oron,1
Nigeria,7.7791666,4.5538891,Africa,Aw,Oshogbo,1
Nigeria,7.1912599,8.1328576,Africa,Aw,Otukpo,1
Burkina Faso,12.3681873,-1.5270944,Africa,BSh,Ouagadougou,1
Nigeria,5.489736,7.0341973,Africa,Am,Owerri,1
Nigeria,7.1962012,5.5868016,Africa,Aw,Owo,1
Nigeria,8.2151249,3.5642897,Africa,Aw,Oyo,1
Indonesia,-7.1058,107.7042,Asia,Af,Pacet,1
Indonesia,-6.8418453,107.4964916,Asia,Af,Padalarang,1
Indonesia,-0.9247587,100.3632561,Asia,Af,Padang,1
Philippines,7.8249717,123.4365816,Asia,Af,Pagadian,1
Thailand,13.9120701,100.4974327,Asia,Aw,Pak Kret,1
India,10.7681928,76.6521319,Asia,Aw,Palakkad,1
Indonesia,-2.9888243,104.7568507,Asia,Af,Palembang,1
India,12.9898157,80.10098654184341,Asia,Aw,Pallavaram,1
Brazil,-10.1837852,-48.3336423,South America,Aw,Palmas,1
Colombia,3.5308373,-76.2988048,South America,As,Palmira,1
Venezuela,10.2591856,-67.0110344,South America,Aw,Palo Negro,1
Indonesia,-0.9051548,119.8722373,Asia,Af,Palu,1
Indonesia,-6.2841644,107.8210101,Asia,Am,Pamanukan,1
Indonesia,-6.33321675,106.7226635889224,Asia,Af,Pamulang,1
Panama,8.9824,-79.5199,North America,Am,Panamá,1
Indonesia,-6.979205,109.1675685,Asia,Am,Pangkah,1
Benin,9.3400159,2.6278258,Africa,Aw,Parakou,1
Suriname,5.8247628,-55.1703941,South America,Af,Paramaribo,1
Brazil,-5.9153334,-35.2679913,South America,As,Parnamirim,1
Brazil,-2.9147515,-41.7661953,South America,Aw,Parnaíba,1
Indonesia,-6.4405056,106.71719959625597,Asia,Af,Parung,1
Indonesia,-6.1719337,106.562309,Asia,Af,Pasarkemis,1
Indonesia,-7.3438348,109.6666534,Asia,Af,Paseh,1
Malaysia,1.4953437,103.9207048,Asia,Af,Pasir Gudang,1
Colombia,1.2140275,-77.2785096,South America,Cfb,Pasto,1
Indonesia,-7.6399593,112.9070632,Asia,Aw,Pasuruan,1
Indonesia,-6.707092449999999,111.08700759039746,Asia,Am,Pati,1
Brazil,-7.9340069,-34.868407,South America,Am,Paulista,1
Indonesia,-0.2242687,100.6319419,Asia,Af,Payakumbuh,1
Indonesia,-7.0418471,109.6198874814006,Asia,Af,Pekalongan,1
Indonesia,-7.0110802,109.39140368595729,Asia,Af,Pemalang,1
Mozambique,-12.9735551,40.5215098,Africa,Aw,Pemba,1
Indonesia,3.5674287,98.956266,Asia,Af,Perbaungan,1
Colombia,4.8143159,-75.6946778,South America,Af,Pereira,1
Malaysia,3.0988792,101.6454202,Asia,Af,Petaling Jaya,1
Guatemala,14.4976914,-90.5560333,North America,Aw,Petapa,1
Venezuela,10.4870075,-66.7966658,South America,Aw,Petare,1
Brazil,-9.3817334,-40.4968875,South America,BSh,Petrolina,1
Vietnam,10.9418092,108.0823313,Asia,Aw,Phan Thiet,1
Cambodia,11.568271,104.9224426,Asia,Aw,Phnum Pénh,1
Thailand,13.6591779,100.5338323,Asia,Aw,Phra Pradaeng,1
Nigeria,9.9848,10.951,Africa,Aw,Pindiga,1
Peru,-5.0,-80.333333,South America,BWh,Piura,1
Indonesia,-7.8959669,110.0901953,Asia,Am,Plumbon,1
Vietnam,13.9718,108.0151,Asia,Aw,Plây Cu,1
India,10.91564885,79.80694879844232,Asia,Aw,Pondicherry,1
India,10.77491915,75.97975130462257,Asia,Am,Ponnani,1
Indonesia,-0.0226903,109.3447488,Asia,Af,Pontianak,1
India,11.6645348,92.7390448,Asia,Am,Port Blair,1
Gabon,-0.7151966,8.7787919,Africa,Aw,Port Gentil,1
Nigeria,4.7676576,7.0188527,Africa,Am,Port Harcourt,1
Papua New Guinea,-9.4743301,147.1599504,Oceania,Am,Port Moresby,1
Ecuador,-1.0528066,-80.4534269,South America,BSh,Portoviejo,1
Indonesia,-3.4382688,104.2310181,Asia,Af,Prabumulih,1
Indonesia,-5.36668925,104.97221206481078,Asia,Af,Pringsewu,1
Indonesia,-7.7441461,113.2158401,Asia,Am,Probolinggo,1
Peru,-8.3820737,-74.5387507,South America,Am,Pucallpa,1
India,10.5,78.833333,Asia,Aw,Pudukkottai,1
Venezuela,10.4677932,-68.0436682,South America,Aw,Puerto Cabello,1
Philippines,9.7376025,118.7350414,Asia,Aw,Puerto Princesa,1
Venezuela,11.6931716,-70.1917178,South America,BSh,Punto Fijo,1
Indonesia,-6.5607313,107.4439799,Asia,Am,Purwakarta,1
Indonesia,-8.3625137,112.8515518,Asia,Am,Purwodadi,1
Indonesia,-7.4279011,109.2408501,Asia,Af,Purwokerto,1
Indonesia,-7.7073021,109.96651169154023,Asia,Am,Purworejo,1
Brazil,-16.443473,-39.064251,South America,Af,Pôrto Seguro,1
Brazil,-8.7494525,-63.8735438,South America,Am,Pôrto Velho,1
Guatemala,14.8464612,-91.5194208,North America,Cwb,Quetzaltenango,1
Ecuador,-1.0243508,-79.4663323,South America,Aw,Quevedo,1
Vietnam,13.7696017,109.2314599,Asia,Cwa,Qui Nhon,1
Ecuador,-0.2201641,-78.5123274,South America,Cfc,Quito,1
Vietnam,10.0107104,105.0832623,Asia,Aw,Rach Gia,1
India,9.4522179,77.5607781,Asia,Aw,Rajapalaiyam,1
Indonesia,-6.9648801,107.7559578,Asia,Am,Rancaekek,1
Indonesia,-6.3526482,106.2515306,Asia,Af,Rangkasbitung,1
Indonesia,2.100033,99.82719358387868,Asia,Af,Rantauprapat,1
Malaysia,3.3194747,101.5748537,Asia,Af,Rawang,1
Thailand,12.7943716,101.3705344,Asia,Aw,Rayong,1
Brazil,-8.0584933,-34.8848193,South America,Am,Recife,1
Indonesia,-6.1377011,107.301754,Asia,Am,Rengasdengklok,1
Brazil,-9.9765362,-67.8220778,South America,Aw,Rio Branco,1
Ecuador,-1.6732765,-78.6482479,South America,Cfb,Riobamba,1
India,12.9581302,78.2743674,Asia,Aw,Robertsonpet,1
Philippines,11.5895171,122.7500577,Asia,Af,Roxas,1
Kenya,-1.1774574,36.98242850646827,Africa,Cfb,Ruiru,1
Indonesia,-7.3302642,110.4995353,Asia,Am,Salatiga,1
Brazil,-12.9822499,-38.4812772,South America,Af,Salvador,1
Indonesia,-0.5017804,117.1393089,Asia,Af,Samarinda,1
Thailand,13.6531651,100.8182578,Asia,Aw,Samut Prakan,1
Philippines,15.033333,120.683333,Asia,Aw,San Fernando,1
Costa Rica,9.9325427,-84.0795782,North America,Af,San José,1
Guatemala,14.78429445,-90.6579108363871,North America,Cwb,San Juan Sacatepéquez,1
Philippines,14.6951949,121.1174024,Asia,Am,San Mateo,1
Panama,9.0551061,-79.4933063,North America,Am,San Miguelito,1
Philippines,14.0700502,121.3255974,Asia,Af,San Pablo,1
Philippines,14.3639435,121.056771,Asia,Am,San Pedro,1
Honduras,15.49363865,-88.00776696107931,North America,Am,San Pedro Sula,1
Côte D'Ivoire,4.7581592,-6.641549,Africa,Aw,San Pédro,1
El Salvador,13.6989939,-89.1914249,North America,Aw,San Salvador,1
Malaysia,5.8391274,118.1158598,Asia,Af,Sandakan,1
El Salvador,13.9947753,-89.5566069,North America,Aw,Santa Ana,1
Philippines,14.2818099,121.414977,Asia,Af,Santa Cruz,1
Colombia,11.2320944,-74.1950916,South America,Aw,Santa Marta,1
Brazil,-7.128465,-34.9846186,South America,As,Santa Rita,1
Philippines,14.3146042,121.1137466,Asia,Am,Santa Rosa,1
Venezuela,9.5551889,-68.8625991,South America,Aw,Santa Teresa,1
Brazil,-2.438489,-54.699611,South America,Am,Santarém,1
Nigeria,5.83156395,5.660127976472991,Africa,Am,Sapele,1
Chad,9.1406471,18.3937969,Africa,Aw,Sarh,1
Indonesia,-7.49376795,110.39235831626016,Asia,Af,Sawangan,1
Ghana,4.937,-1.7127928,Africa,Aw,Sekondi,1
Malaysia,1.509806,103.6931651,Asia,Af,Sekudai,1
India,11.6643,78.146,Asia,Aw,Selam,1
Indonesia,-6.9903988,110.4229104,Asia,Am,Semarang,1
Indonesia,-6.12319355,106.5839802036018,Asia,Af,Sepatan,1
Indonesia,-6.10549695,105.9884713457985,Asia,Af,Serang,1
Gambia,13.4594414,-16.674613836405907,Africa,As,Serekunda,1
Malaysia,2.718407,101.94106957295432,Asia,Af,Seremban,1
Nigeria,6.8477165,3.6440551,Africa,Aw,Shagamu,1
Malaysia,3.0739429,101.5185278,Asia,Af,Shah Alam,1
Nigeria,9.35,6.8,Africa,Aw,Shaki,1
India,13.9326093,75.574978,Asia,Aw,Shimoga,1
Tanzania,-3.76222255,33.2320360738371,Africa,Aw,Shinyanga,1
Thailand,13.1655011,100.9256709,Asia,Aw,Si Racha,1
Malaysia,2.29220955,111.87658661205316,Asia,Af,Sibu,1
Indonesia,-7.45597405,112.66088771295344,Asia,Aw,Sidoarjo,1
Mali,11.529684,-6.866325857692308,Africa,Aw,Sikasso,1
Colombia,9.31542935,-75.42832991993517,South America,Aw,Sincelejo,1
Singapore,1.2899175,103.8519072,Asia,Af,Singapore,1
Indonesia,-8.1133599,115.0839326,Asia,Am,Singaraja,1
Indonesia,0.9069861,108.9889657,Asia,Af,Singkawang,1
Colombia,4.5821413,-74.2197178,South America,Cfb,Soacha,1
Brazil,-3.6879135,-40.3456372,South America,Aw,Sobral,1
Vietnam,9.5628369,105.9493991,Asia,Aw,Soc Trang,1
Colombia,5.7148307,-72.9279328,South America,Cfb,Sogamoso,1
Togo,8.9833194,1.1438149,Africa,Aw,Sokodé,1
Nigeria,13.0611195,5.3152203,Africa,BSh,Sokoto,1
Colombia,10.9149593,-74.7821054,South America,Aw,Soledad,1
Tanzania,-10.6787282,35.6483576,Africa,Cwa,Songea,1
Indonesia,-7.0268685,107.5167964,Asia,Af,Soreang,1
Indonesia,-0.8634105,131.2544805,Asia,Af,Sorong,1
Côte D'Ivoire,5.7852673,-6.5928329,Africa,Aw,Soubré,1
El Salvador,13.7036577,-89.1501583,North America,Aw,Soyapango,1
Indonesia,-6.49838875,107.73954601355436,Asia,Am,Subang,1
Indonesia,-6.9199289,106.9265095,Asia,Af,Sukabumi,1
Indonesia,-6.8901546,107.5662896,Asia,Af,Sukaraja,1
Nigeria,9.20816565,7.187189747918152,Africa,Aw,Suleja,1
Peru,-4.5684496,-80.6446943,South America,BWh,Sullana,1
Indonesia,-6.8597179,107.9207066,Asia,Am,Sumedang,1
Malaysia,5.6435195,100.4869513,Asia,Af,Sungai Petani,1
Indonesia,3.5754225,98.6142296,Asia,Af,Sunggal,1
Indonesia,-7.2459717,112.7378266,Asia,Aw,Surabaya,1
Indonesia,-7.5692489,110.828448,Asia,Am,Surakarta,1
Thailand,9.4674663,98.830042,Asia,Am,Surat Thani,1
Brazil,-2.5295265,-44.2963942,South America,As,São Luís,1
Tanzania,-5.1913822,32.5080629,Africa,Aw,Tabora,1
Philippines,11.2436208,125.0079543,Asia,Af,Tacloban,1
Philippines,7.4470784,125.8094853,Asia,Af,Tagum,1
Malaysia,4.8546772,100.7438831,Asia,Af,Taiping,1
Ghana,4.887401,-1.7519316,Africa,Aw,Takoradi,1
Peru,-4.5796872,-81.2718335,South America,BWh,Talara,1
Philippines,10.25,123.8333,Asia,Af,Talisay,1
Ghana,9.4051992,-0.8423986,Africa,Aw,Tamale,1
Indonesia,-7.3631369,112.67566204382938,Asia,Aw,Taman,1
India,12.9245279,80.1150525,Asia,Aw,Tambaram,1
Indonesia,-6.2585874,107.0558099,Asia,Af,Tambun,1
Indonesia,-2.869405,120.1671405,Asia,Af,Tanete,1
Tanzania,-5.202134,38.2275548,Africa,Aw,Tanga,1
Indonesia,-6.1761924,106.6382161,Asia,Af,Tangerang,1
Indonesia,3.5173404,98.7926727,Asia,Af,Tanjung Morawa,1
Philippines,14.4012163,120.8580466,Asia,Am,Tanza,1
Mexico,14.9258055,-92.32219567868036,North America,Aw,Tapachula,1
Philippines,15.4937252,120.4964091,Asia,Am,Tarlac,1
Indonesia,-7.3262484,108.2201154,Asia,Am,Tasikmalaya,1
Malaysia,4.2435206,117.885331,Asia,Af,Tawau,1
Philippines,14.5706996,121.13202,Asia,Am,Taytay,1
Indonesia,3.319444,99.152222,Asia,Af,Tebingtinggi,1
Indonesia,-7.05644335,109.13157658590204,Asia,Am,Tegal,1
Honduras,14.1057433,-87.2040052,North America,Aw,Tegucigalpa,1
Indonesia,-6.0536646,106.6578901146651,Asia,Af,Teluknaga,1
Ghana,5.6596441,-0.0096592,Africa,Aw,Tema,1
Brazil,-5.0874608,-42.8049571,South America,Aw,Teresina,1
Indonesia,0.7852338,127.3831752,Asia,Af,Ternate,1
Ghana,5.5822343,-0.1135104,Africa,Aw,Teshie,1
India,10.7860267,79.1381497,Asia,Aw,Thanjavur,1
Thailand,14.0201469,100.7345277,Asia,Aw,Thanyaburi,1
India,8.4882267,76.947551,Asia,Aw,Thiruvananthapuram,1
India,10.5270099,76.214621,Asia,Am,Thrissur,1
Brazil,-5.1004341,-42.8312018,South America,Aw,Timon,1
India,10.8067917,78.7039861,Asia,Aw,Tiruchchirappalli,1
India,8.7284271,77.7112925,Asia,As,Tirunelveli,1
India,13.77928955,79.83512262283737,Asia,Aw,Tirupati,1
India,11.1017815,77.345192,Asia,BSh,Tiruppur,1
India,12.22713775,79.07012882091152,Asia,Aw,Tiruvannamalai,1
India,13.1563873,80.3005279,Asia,Aw,Tiruvottiyur,1
Philippines,10.3749385,123.6344069,Asia,Am,Toledo,1
Sri Lanka,8.576425,81.2344952,Asia,As,Trincomalee,1
Peru,-8.1116778,-79.0287742,South America,BWh,Trujillo,1
Congo (Democratic Republic Of The),-6.4192,20.7927,Africa,Aw,Tshikapa,1
Colombia,4.0856667,-76.1972779,South America,As,Tuluá,1
Peru,-3.833333,-80.5,South America,BSh,Tumbes,1
India,13.3400771,77.1006208,Asia,BSh,Tumkur,1
Colombia,5.5324313,-73.3616014,South America,Cfb,Tunja,1
Venezuela,10.2217183,-67.4865808,South America,Aw,Turmero,1
India,13.3419169,74.7473232,Asia,Am,Udupi,1
Nigeria,5.8086,8.0812,Africa,Aw,Ugep,1
Nigeria,5.5324032,7.4924165,Africa,Am,Umuahia,1
Indonesia,-7.1290892,110.4038912,Asia,Am,Ungaran,1
Philippines,15.9759995,120.5668992,Asia,Aw,Urdaneta,1
Nigeria,6.7086526,6.3296676,Africa,Am,Uromi,1
Congo (Democratic Republic Of The),-3.3729,29.1449,Africa,BSh,Uvira,1
Nigeria,4.9902370000000005,7.9974399113319485,Africa,Am,Uyo,1
Colombia,10.4651733,-73.2529512,South America,Aw,Valledupar,1
India,13.4108641,79.8043571,Asia,Aw,Velluru,1
Guatemala,14.483333,-90.533333,North America,Aw,Villa Canales,1
Guatemala,14.5308826,-90.5963325,North America,Aw,Villa Nueva,1
Colombia,4.11145945,-73.4967836258948,South America,Am,Villavicencio,1
Vietnam,10.1203043,106.0125705,Asia,Aw,Vinh Long,1
Brazil,-14.8567487,-40.8414804,South America,Aw,Vitória Da Conquista,1
Brazil,-8.1209019,-35.2944858,South America,As,Vitória De Santo Antão,1
Vietnam,10.3486485,107.0765028,Asia,Aw,Vung Tau,1
Nigeria,5.5186186,5.7480196,Africa,Am,Warri,1
Indonesia,-7.3503,112.7675,Asia,Aw,Waru,1
Sudan,7.7,28.0,Africa,Aw,Waw,1
Indonesia,-7.7754315,110.7580914,Asia,Am,Weru,1
Côte D'Ivoire,6.8200066,-5.2776034,Africa,Aw,Yamoussoukro,1
Cameroon,3.8689867,11.5213344,Africa,Aw,Yaoundé,1
India,13.1006982,77.5963454,Asia,Aw,Yelahanka,1
Indonesia,-7.977838399999999,110.36722565020224,Asia,Am,Yogyakarta,1
Philippines,6.904167,122.076111,Asia,Af,Zamboanga,1
Tanzania,-6.09994425,39.32094431715264,Africa,Am,Zanzibar,1
Nigeria,11.0248119,7.651853311586596,Africa,Aw,Zaria,1
Senegal,12.7539797,-16.40392966965883,Africa,As,Ziguinchor,1
Spain,43.3709703,-8.3959425,Europe,Csb,A Coruña,2
Germany,50.776351,6.083862,Europe,Cfb,Aachen,2
Denmark,57.0462626,9.9215263,Europe,Cfb,Aalborg,2
Russia,53.72068,91.4406019,Europe,BSk,Abakan,2
Canada,49.0521162,-122.329479,North America,Cfb,Abbotsford,2
United Kingdom,57.1482429,-2.0928095,Europe,Cfb,Aberdeen,2
China,45.5362499,126.9694447,Asia,Dwa,Acheng,2
Russia,56.2694846,90.4953964,Europe,Dfb,Achinsk,2
Kazakhstan,43.6353364,51.168222,Asia,BWk,Aktau,2
Kazakhstan,43.2363924,76.9457275,Asia,Dfa,Almaty,2
Netherlands,52.3705038,5.2185859,Europe,Cfb,Almere,2
Russia,54.9005008,52.2963777,Europe,Dfb,Almetyevsk,2
China,47.1001782,88.4341751,Asia,BSk,Altay,2
Netherlands,52.16377025,5.408884537568014,Europe,Cfb,Amersfoort,2
France,49.8941708,2.2956951,Europe,Cfb,Amiens,2
Netherlands,52.3730796,4.8924534,Europe,Cfb,Amsterdam,2
United States,61.2163129,-149.894852,North America,Dsc,Anchorage,2
China,46.5169806,125.4192927,Asia,Dwa,Anda,2
Russia,52.5443167,103.8882138,Europe,Dwb,Angarsk,2
France,47.4739884,-0.5515588,Europe,Cfb,Angers,2
Belgium,51.2211097,4.3997081,Europe,Cfb,Antwerp,2
Netherlands,52.17957375,5.930077460807249,Europe,Cfb,Apeldoorn,2
Kazakhstan,50.2836268,57.2298651,Asia,Dfa,Aqtöbe,2
Romania,46.1753793,21.3196342,Europe,Cfa,Arad,2
Russia,64.543022,40.537121,Europe,Dfc,Arkhangelsk,2
Russia,44.9993585,41.1294061,Europe,Cfa,Armavir,2
Netherlands,51.984257,5.9108573,Europe,Cfb,Arnhem,2
Russia,55.3987879,43.8210933,Europe,Dfb,Arzamas,2
Japan,43.7627501,142.3579263,Asia,Dfb,Asahikawa,2
Kazakhstan,51.1282205,71.4306682,Asia,Dfb,Astana,2
Russia,46.3498308,48.0326203,Europe,BSk,Astrakhan,2
Kazakhstan,47.6605827,50.806203,Asia,BSk,Atyrau,2
Germany,48.3690341,10.8979522,Europe,Cfb,Augsburg,2
Romania,46.4228703,26.716399078506697,Europe,Cfb,Bacau,2
Romania,47.6565584,23.5719843,Europe,Cfb,Baia Mare,2
China,45.6156275,122.8360811,Asia,BSk,Baicheng,2
Russia,52.01812,47.819141,Europe,Dfa,Balakovo,2
Russia,55.7997662,37.9373707,Europe,Dfb,Balashikha,2
Moldova,47.7623952,27.9286022,Europe,Cfa,Balti,2
Bosnia And Herzegovina,44.7720845,17.1917651,Europe,Cfb,Banja Luka,2
China,46.577222,131.401667,Asia,Dwb,Baoshan,2
Spain,41.3828939,2.1774322,Europe,Csa,Barcelona,2
Russia,53.3475493,83.7788448,Europe,Dfb,Barnaul,2
Canada,44.3893208,-79.6901302,North America,Dfb,Barrie,2
Switzerland,47.5581077,7.5878261,Europe,Cfb,Basel,2
United Kingdom,51.5754602,0.4757363,Europe,Cfb,Basildon,2
Russia,47.138527,39.742348,Europe,Cfa,Bataysk,2
China,46.4398394,126.2373497,Asia,Dwa,Beian,2
United Kingdom,54.596391,-5.9301829,Europe,Cfb,Belfast,2
Russia,50.5955595,36.5873394,Europe,Dfb,Belgorod,2
Serbia,44.8178131,20.4568974,Europe,Cfa,Belgrade,2
United States,47.6144219,-122.192337,North America,Csb,Bellevue,2
Russia,59.4084171,56.8036958,Europe,Dfb,Berezniki,2
Italy,45.7566557,9.754219200862249,Europe,Cfb,Bergamo,2
Norway,60.3943055,5.3259192,Europe,Cfb,Bergen,2
Germany,50.9929303,7.1277379,Europe,Cfb,Bergisch Gladbach,2
Germany,52.5170365,13.3888599,Europe,Cfb,Berlin,2
Switzerland,46.9484742,7.4521749,Europe,Cfb,Bern,2
France,47.2380222,6.0243622,Europe,Cfb,Besançon,2
Poland,53.132398,23.1591679,Europe,Dfb,Bialystok,2
Germany,52.0191005,8.531007,Europe,Cfb,Bielefeld,2
Poland,49.822118,19.0448936,Europe,Dfb,Bielsko Biala,2
Ukraine,49.7969703,30.1158069,Europe,Dfb,Bila Tserkva,2
Spain,43.2630018,-2.9350039,Europe,Cfb,Bilbao,2
United Kingdom,52.4796992,-1.9026911,Europe,Cfb,Birmingham,2
Russia,52.5394905,85.2148673,Europe,Dfb,Biysk,2
United Kingdom,53.749326,-2.4840566,Europe,Cfb,Blackburn,2
United Kingdom,53.8179442,-3.0509812,Europe,Cfb,Blackpool,2
Russia,50.2600417,127.5337378,Europe,Dwb,Blagoveshchensk,2
Germany,51.4818111,7.2196635,Europe,Cfb,Bochum,2
Italy,44.4938203,11.3426327,Europe,Cfa,Bologna,2
United Kingdom,53.5782863,-2.4300367,Europe,Cfb,Bolton,2
Germany,50.735851,7.10066,Europe,Cfb,Bonn,2
France,44.841225,-0.5800364,Europe,Cfb,Bordeaux,2
United States,42.3554334,-71.060511,North America,Cfa,Boston,2
Romania,47.8528263,26.759333980148376,Europe,Cfa,Botosani,2
Germany,51.521581,6.929204,Europe,Cfb,Bottrop,2
France,48.8356649,2.240206,Europe,Cfb,Boulogne Billancourt,2
United Kingdom,50.7201514,-1.8799118,Europe,Cfb,Bournemouth,2
United Kingdom,53.7944229,-1.7519186,Europe,Cfb,Bradford,2
Romania,45.6525105,25.6105654,Europe,Dfb,Brasov,2
Slovakia,48.15926025,17.139658691421687,Europe,Cfb,Bratislava,2
Russia,56.1517085,101.6334907,Europe,Dfc,Bratsk,2
Netherlands,51.5887845,4.7760237,Europe,Cfb,Breda,2
Germany,53.0758196,8.8071646,Europe,Cfb,Bremen,2
Germany,53.5505392,8.5851945,Europe,Cfb,Bremerhaven,2
Italy,45.77958045,10.4258729694612,Europe,Cfb,Brescia,2
Belarus,52.093751,23.6851851,Europe,Cfb,Brest,2
United Kingdom,50.8214626,-0.1400561,Europe,Cfb,Brighton,2
United Kingdom,51.4538022,-2.5972985,Europe,Cfb,Bristol,2
Czech Republic,49.1922443,16.6113382,Europe,Cfb,Brno,2
Belgium,51.2085526,3.226772,Europe,Cfb,Brugge,2
Germany,52.2646577,10.5236066,Europe,Cfb,Brunswick,2
Belgium,50.8550018,4.3512333761166175,Europe,Cfb,Brussels,2
Russia,53.2423778,34.3668288,Europe,Dfb,Bryansk,2
Hungary,47.48138955,19.14609412691246,Europe,Cfb,Budapest,2
Romania,45.26925815,26.7748172789942,Europe,Cfb,Buzau,2
Poland,53.1219648,18.0002529,Europe,Cfb,Bydgoszcz,2
Poland,50.3657432,18.87153251609449,Europe,Cfb,Bytom,2
France,49.1813403,-0.3635615,Europe,Cfb,Caen,2
Canada,51.0456064,-114.057541,North America,Dfb,Calgary,2
United Kingdom,52.2055314,0.1186637,Europe,Cfb,Cambridge,2
United Kingdom,51.4816546,-3.1791934,Europe,Cfb,Cardiff,2
China,43.8844201,125.3180998,Asia,Dwa,Changchun,2
China,44.3478012,86.6870066,Asia,BSk,Changji,2
Belgium,50.4116233,4.444528,Europe,Cfb,Charleroi,2
Russia,56.1307195,47.2449597,Europe,Dfb,Cheboksary,2
United Kingdom,51.7345329,0.4730532,Europe,Cfb,Chelmsford,2
United Kingdom,51.8995685,-2.0711559,Europe,Cfb,Cheltenham,2
Russia,55.1598408,61.4025547,Europe,Dfb,Chelyabinsk,2
Germany,50.8323531,12.918914,Europe,Cfb,Chemnitz,2
Russia,59.128696,37.916389,Europe,Dfb,Cherepovets,2
Ukraine,49.1460165,31.2271744,Europe,Dfb,Cherkasy,2
Russia,44.22538305,42.06819662981461,Europe,Cfa,Cherkessk,2
Ukraine,51.272593,31.7417235,Europe,Dfb,Chernihiv,2
Ukraine,48.2864702,25.9376532,Europe,Cfb,Chernivtsi,2
Moldova,47.0245117,28.8322923,Europe,Cfa,Chisinau,2
Russia,52.033409,113.500893,Europe,Dwc,Chita,2
Poland,50.2978791,18.9544466,Europe,Cfb,Chorzow,2
New Zealand,-43.530955,172.6364343,Oceania,Cfb,Christchurch,2
France,45.7774551,3.0819427,Europe,Cfb,Clermont Ferrand,2
Romania,46.769379,23.5899542,Europe,Cfb,Cluj Napoca,2
United Kingdom,51.8896903,0.8994651,Europe,Cfb,Colchester,2
Germany,50.938361,6.959974,Europe,Cfb,Cologne,2
Argentina,-45.8632024,-67.4752615,South America,BSk,Comodoro Rivadavia,2
Denmark,55.6867243,12.5700724,Europe,Cfb,Copenhagen,2
Ireland,51.897077,-8.4654674,Europe,Cfb,Cork,2
Germany,51.7567447,14.3357307,Europe,Cfb,Cottbus,2
United Kingdom,52.4081812,-1.510477,Europe,Cfb,Coventry,2
Poland,50.0606452,19.9370985,Europe,Cfb,Cracow,2
United Kingdom,51.1103444,-0.1801094,Europe,Cfb,Crawley,2
Poland,50.8089997,19.1244089281233,Europe,Cfb,Czestochowa,2
Poland,50.369624,19.28904648968448,Europe,Cfb,Dabrowa Gornicza,2
Germany,49.872775,8.651177,Europe,Cfb,Darmstadt,2
Turkmenistan,41.3862117,58.5586047,Asia,BWk,Dasoguz,2
Latvia,55.8712267,26.5159337,Europe,Dfb,Daugavpils,2
Hungary,47.531399,21.6259782,Europe,Cfb,Debrecen,2
China,44.5350141,125.6954363,Asia,Dwa,Dehui,2
United Kingdom,52.9142235,-1.4719885461266051,Europe,Cfb,Derby,2
China,45.3466325,130.8367458,Asia,Dwb,Didao,2
France,47.3215806,5.0414701,Europe,Cfb,Dijon,2
Russia,54.2188995,49.6038982,Europe,Dfb,Dimitrovgrad,2
Netherlands,51.7689546,4.686789054617023,Europe,Cfb,Dordrecht,2
Germany,51.5142273,7.4652789,Europe,Cfb,Dortmund,2
Germany,51.0493286,13.7381437,Europe,Cfb,Dresden,2
Romania,44.6257835,22.6531975,Europe,Cfa,Drobeta Turnu Severin,2
Ireland,53.3493795,-6.2605593,Europe,Cfb,Dublin,2
United Kingdom,52.5110832,-2.0816813,Europe,Cfb,Dudley,2
Germany,51.434999,6.759562,Europe,Cfb,Duisburg,2
United Kingdom,56.4605938,-2.97019,Europe,Cfb,Dundee,2
New Zealand,-45.8740984,170.5035755,Oceania,Cfb,Dunedin,2
Albania,41.313255,19.4462348,Europe,Csa,Durrës,2
Russia,56.2382157,43.4617405,Europe,Dfb,Dzerzhinsk,2
Germany,51.2254018,6.7763137,Europe,Cfb,Düsseldorf,2
United Kingdom,50.7664372,0.2781546,Europe,Cfb,Eastbourne,2
Japan,43.1037358,141.535894,Asia,Dfb,Ebetsu,2
Netherlands,52.07168255,5.745510631034939,Europe,Cfb,Ede,2
United Kingdom,55.9533456,-3.1883749,Europe,Cfb,Edinburgh,2
Canada,53.5462055,-113.491241,North America,Dfb,Edmonton,2
Netherlands,51.4392648,5.478633,Europe,Cfb,Eindhoven,2
Kazakhstan,51.7275817,75.3288511,Asia,BSk,Ekibastuz,2
Albania,41.1105874,20.0794072,Europe,Csa,Elbasan,2
Poland,54.1988997,19.44108568736702,Europe,Cfb,Elblag,2
Russia,55.7903785,38.4405711,Europe,Dfb,Elektrostal,2
Russia,46.306999,44.270187,Europe,Dfa,Elista,2
Netherlands,52.75286615,6.952513466208563,Europe,Cfb,Emmen,2
Russia,51.5013775,46.1233093,Europe,Dfa,Engels,2
Netherlands,52.22336325,6.870595664097989,Europe,Cfb,Enschede,2
Germany,50.9777974,11.0287364,Europe,Cfb,Erfurt,2
Germany,49.5928616,11.0056,Europe,Cfb,Erlangen,2
Finland,60.2047672,24.6568435,Europe,Dfb,Espoo,2
Germany,51.4582235,7.0158171,Europe,Cfb,Essen,2
United Kingdom,50.7255794,-3.5269497,Europe,Cfb,Exeter,2
Italy,44.76676425,11.827938995640167,Europe,Cfa,Ferrara,2
Italy,43.7698712,11.2555757,Europe,Csa,Florence,2
Romania,45.697274,27.1856921,Europe,Cfa,Focsani,2
Italy,44.2227278,12.041273,Europe,Cfa,Forlì,2
Germany,50.1106444,8.6820917,Europe,Cfb,Frankfurt,2
Germany,47.9960901,7.8494005,Europe,Cfb,Freiburg,2
China,47.659918,124.564511,Asia,Dwa,Fuyu,2
Germany,49.4772475,10.9893626,Europe,Cfb,Fürth,2
Romania,45.4338215,28.0549395,Europe,Cfa,Galati,2
Poland,54.42880315,18.79832701217957,Europe,Cfb,Gdansk,2
Poland,54.52333035,18.604027892041863,Europe,Cfb,Gdynia,2
Germany,51.5110321,7.0960124,Europe,Cfb,Gelsenkirchen,2
Switzerland,46.2047169,6.1423106290939335,Europe,Cfb,Geneva,2
Italy,44.40726,8.9338624,Europe,Csa,Genoa,2
Belgium,51.0538286,3.7250121,Europe,Cfb,Gent,2
Germany,50.8765537,12.0832666,Europe,Cfb,Gera,2
Spain,43.5449422,-5.66275,Europe,Csb,Gijón,2
United Kingdom,51.3871701,0.5461611,Europe,Cfb,Gillingham,2
United Kingdom,55.861155,-4.2501687,Europe,Cfb,Glasgow,2
Russia,58.1401196,52.6464388,Europe,Dfb,Glazov,2
Poland,50.294113,18.6657306,Europe,Cfb,Gliwice,2
United Kingdom,51.8653705,-2.2458192,Europe,Cfb,Gloucester,2
Belarus,52.4238936,31.0131698,Europe,Dfb,Gomel,2
China,43.7703784,124.7656749,Asia,Dwa,Gongzhuling,2
Poland,52.73057555,15.210755319093852,Europe,Cfb,Gorzow Wielkopolski,2
Austria,47.0708678,15.4382786,Europe,Cfb,Graz,2
France,45.1875602,5.7357819,Europe,Cfa,Grenoble,2
Netherlands,53.2190652,6.5680077,Europe,Cfb,Groningen,2
Hungary,47.687609,17.6346815,Europe,Cfb,Gyor,2
Sweden,57.7072326,11.9670171,Europe,Cfb,Göteborg,2
Germany,51.5328328,9.9351811,Europe,Cfb,Göttingen,2
Netherlands,52.38370575,4.643559696559635,Europe,Cfb,Haarlem,2
Netherlands,52.3238421,4.715261248876009,Europe,Cfb,Haarlemmermeer,2
Germany,51.3582945,7.473296,Europe,Cfb,Hagen,2
China,49.2321432,119.817227,Asia,Dwb,Hailar,2
China,47.4165095,126.82147280464751,Asia,Dwb,Hailun,2
Canada,44.648618,-63.5859487,North America,Dfb,Halifax,2
Germany,51.4825041,11.9705452,Europe,Cfb,Halle,2
Germany,53.550341,10.000654,Europe,Cfb,Hamburg,2
Germany,50.0165178,6.4184628,Europe,Cfb,Hamm,2
Germany,52.3744779,9.7385532,Europe,Cfb,Hanover,2
China,45.7593633,126.6276177,Asia,Dwa,Harbin,2
China,47.35,130.298056,Asia,Dwb,Hegang,2
Germany,49.4093582,8.694724,Europe,Cfb,Heidelberg,2
Russia,50.24,127.521111,Europe,Dwb,Heihe,2
Germany,49.142291,9.218655,Europe,Cfb,Heilbronn,2
Finland,60.1674881,24.9427473,Europe,Dfb,Helsinki,2
China,45.206333,130.902997,Asia,Dwb,Hengshan,2
Germany,51.5380394,7.219985,Europe,Cfb,Herne,2
Germany,52.1521636,9.9513046,Europe,Cfb,Hildesheim,2
China,46.3966917,124.8844111,Asia,Dwa,Honggang,2
Ukraine,48.3058686,38.0027664,Europe,Dfb,Horlivka,2
Belarus,53.6834599,23.8342648,Europe,Dfb,Hrodna,2
United Kingdom,53.6466645,-1.7822482,Europe,Cfb,Huddersfield,2
China,46.1439807,126.8256287,Asia,Dwa,Hulan,2
China,47.2074162,123.6294983,Asia,Dwa,Hulan Ergi,2
Romania,47.1615416,27.5837224,Europe,Cfa,Iasi,2
Germany,48.7630165,11.4250395,Europe,Cfb,Ingolstadt,2
Austria,47.2654296,11.3927685,Europe,Cfb,Innsbruck,2
United Kingdom,52.0579324,1.1528095,Europe,Cfb,Ipswich,2
Russia,52.283333,104.283333,Europe,Dwb,Irkutsk,2
Russia,56.9984452,40.9737394,Europe,Dfb,Ivanovo,2
Russia,56.866557,53.2094166,Europe,Dfb,Izhevsk,2
China,47.02157,132.044137,Asia,Dwa,Jiamusi,2
China,43.6848768,127.3578579,Asia,Dwb,Jiaohe,2
China,43.7289674,126.1997366,Asia,Dwa,Jilin,2
China,44.316669,126.816667,Asia,Dwa,Jishu,2
China,44.2473733,126.0575422,Asia,Dwa,Jiutai,2
China,45.65802,132.461493,Asia,Dwb,Jixi,2
Russia,54.70464845,20.45656664662173,Europe,Cfb,Kaliningrad,2
Poland,51.74736505,18.07959008770004,Europe,Cfb,Kalisz,2
Russia,54.5101087,36.2598115,Europe,Dfb,Kaluga,2
Russia,56.43610515,61.98076211167784,Europe,Dfb,Kamensk Uralskiy,2
Russia,50.0808422,45.4048003,Europe,Dfa,Kamyshin,2
Russia,56.205997,95.706787,Europe,Dfb,Kansk,2
China,45.5778068,84.8867252,Asia,BWk,Karamay,2
Germany,49.0068705,8.4034195,Europe,Cfb,Karlsruhe,2
Germany,51.3154546,9.4924096,Europe,Cfb,Kassel,2
Poland,50.2137321,19.00588775660632,Europe,Cfb,Katowice,2
Lithuania,54.8982139,23.9044817,Europe,Dfb,Kaunas,2
Russia,55.7823547,49.1242266,Europe,Dfb,Kazan,2
Hungary,46.9073883,19.6917206,Europe,Cfb,Kecskemét,2
Canada,49.8879177,-119.495902,North America,BSk,Kelowna,2
Russia,55.3550907,86.0871213,Europe,Dfb,Kemerovo,2
Ukraine,45.3617497,36.4324636,Europe,Cfa,Kerch,2
Russia,51.6312684,136.121524,Europe,Dfb,Khabarovsk,2
Ukraine,46.5421715,33.4079326,Europe,Cfa,Kherson,2
Russia,55.8917293,37.4396994,Europe,Dfb,Khimki,2
Germany,54.3227085,10.135555,Europe,Cfb,Kiel,2
Poland,50.8719903,20.6310488,Europe,Cfb,Kielce,2
Ukraine,50.4500336,30.5241361,Europe,Dfb,Kiev,2
Canada,44.3054151,-76.4283781,North America,Dfb,Kingston,2
United Kingdom,53.76238625,-0.3301213755327681,Europe,Cfb,Kingston Upon Hull,2
Russia,58.6035661,49.6666241,Europe,Dfb,Kirov,2
Ukraine,48.1916774,31.6902953,Europe,Dfb,Kirovohrad,2
Russia,43.9128743,42.7192186,Europe,Dfb,Kislovodsk,2
Japan,43.8029391,143.8946351,Asia,Dfb,Kitami,2
Lithuania,55.7127529,21.1350469,Europe,Cfb,Klaipeda,2
Germany,50.3533278,7.5943951,Europe,Cfb,Koblenz,2
Russia,55.0938743,38.7670121,Europe,Dfb,Kolomna,2
Russia,59.748444,30.604479,Europe,Dfb,Kolpino,2
Russia,50.561797,136.9995057005502,Europe,Dwb,Komsomolsk Na Amure,2
Slovakia,48.7172272,21.2496774,Europe,Cfb,Kosice,2
Russia,57.7679158,40.9269141,Europe,Dfb,Kostroma,2
Poland,54.19092,16.17707,Europe,Cfb,Koszalin,2
Russia,56.374603,41.311676,Europe,Dfb,Kovrov,2
Serbia,44.0130251,20.91925,Europe,Cfa,Kragujevac,2
Russia,45.0351532,38.9772396,Europe,Cfa,Krasnodar,2
Russia,56.0090968,92.8725147,Europe,Dfb,Krasnoyarsk,2
Germany,51.3331205,6.5623343,Europe,Cfb,Krefeld,2
Ukraine,49.09285285,33.43081884909263,Europe,Dfb,Kremenchuk,2
Ukraine,47.9105,33.3918,Europe,Dfa,Kryvyy Rih,2
Russia,55.41284775,65.38521650075313,Europe,Dfb,Kurgan,2
Russia,51.7309249,36.1923123,Europe,Dfb,Kursk,2
China,44.551335,85.01358,Asia,BWk,Kuytun,2
Russia,51.719079,94.4300679,Europe,BSk,Kyzyl,2
Switzerland,46.5218269,6.6327025,Europe,Cfb,Lausanne,2
France,49.4938975,0.1079732,Europe,Cfb,Le Havre,2
France,48.0073849,0.1967849,Europe,Cfb,Le Mans,2
United Kingdom,53.7974185,-1.5437941,Europe,Cfb,Leeds,2
Poland,51.204768900000005,16.174675034638256,Europe,Cfb,Legnica,2
United Kingdom,52.6362,-1.1331969,Europe,Cfb,Leicester,2
Netherlands,52.1518157,4.4811088666204295,Europe,Cfb,Leiden,2
Germany,51.3406321,12.3747329,Europe,Cfb,Leipzig,2
Russia,54.6302734,86.078248,Europe,Dfb,Leninsk Kuznetskiy,2
Germany,51.0324743,6.9881194,Europe,Cfb,Leverkusen,2
France,50.6365654,3.0635282,Europe,Cfb,Lille,2
France,45.8354243,1.2644847,Europe,Cfb,Limoges,2
Austria,48.3059078,14.286198,Europe,Cfb,Linz,2
Russia,52.6935178,39.1122664,Europe,Dfb,Lipetsk,2
United Kingdom,53.4071991,-2.99168,Europe,Cfb,Liverpool,2
Belgium,50.6450944,5.5736112,Europe,Cfb,Liège,2
Slovenia,46.0500268,14.5069289,Europe,Cfb,Ljubljana,2
Canada,42.9832406,-81.243372,North America,Dfb,London,2
China,46.5675495,125.1377353,Asia,Dwa,Longfeng,2
China,47.2041505,123.1778544,Asia,Dwa,Longjiang,2
Chile,-37.4707455,-72.351686,South America,Csb,Los Angeles,2
United States,42.6414437,-71.3085329,North America,Dfa,Lowell,2
Poland,51.250559,22.5701022,Europe,Cfb,Lublin,2
Germany,49.4704113,8.4381568,Europe,Cfb,Ludwigshafen,2
United Kingdom,51.89107295,-0.4230304076201782,Europe,Cfb,Luton,2
Ukraine,49.841952,24.0315921,Europe,Dfb,Lvov,2
France,45.7578137,4.8320114,Europe,Cfb,Lyon,2
Russia,55.6783142,37.89377,Europe,Dfb,Lyubertsy,2
Germany,53.866444,10.684738,Europe,Cfb,Lübeck,2
Netherlands,50.8512438,5.6909768,Europe,Cfb,Maastricht,2
Germany,52.1315889,11.6399609,Europe,Cfb,Magdeburg,2
Russia,53.4242184,58.983136,Europe,Dfb,Magnitogorsk,2
Germany,50.0012314,8.2762513,Europe,Cfb,Mainz,2
Ukraine,48.0448144,37.9635093,Europe,Dfa,Makiyivka,2
Sweden,55.6052931,13.0001566,Europe,Cfb,Malmö,2
United Kingdom,53.4794892,-2.2451148,Europe,Cfb,Manchester,2
Germany,49.4892913,8.4673098,Europe,Cfb,Mannheim,2
Argentina,-37.4500273,-57.55,South America,Cfb,Mar Del Plata,2
Russia,44.6062079,40.104053,Europe,Cfa,Maykop,2
Belarus,52.0475482,29.2667179,Europe,Dfb,Mazyr,2
France,49.1196964,6.1763552,Europe,Cfb,Metz,2
Russia,53.6863763,88.0703443,Europe,Dfb,Mezhdurechensk,2
Russia,55.09957385,60.02363970676713,Europe,Dfb,Miass,2
United Kingdom,54.5760419,-1.2344047,Europe,Cfb,Middlesbrough,2
Italy,45.4641943,9.1896346,Europe,Cfa,Milan,2
United States,44.9772995,-93.2654692,North America,Dfa,Minneapolis,2
Belarus,53.9024716,27.5618225,Europe,Dfb,Minsk,2
Hungary,48.1030643,20.7900429,Europe,Cfb,Miskolc,2
Italy,44.5384728,10.93596087053074,Europe,Cfa,Modena,2
Germany,51.451283,6.62843,Europe,Cfb,Moers,2
France,43.6112422,3.8767337,Europe,Csa,Montpellier,2
Canada,45.5031824,-73.5698065,North America,Dfb,Montreal,2
Italy,45.6395418,9.278830418070044,Europe,Cfa,Monza,2
Russia,55.7505412,37.6174782,Europe,Dfb,Moscow,2
Bosnia And Herzegovina,43.3435855,17.8076584,Europe,Cfb,Mostar,2
China,44.5498406,129.6259558,Asia,Dwa,Mudanjiang,2
France,47.7467233,7.3389937,Europe,Cfb,Mulhouse,2
Germany,48.1371079,11.5753822,Europe,Cfb,Munich,2
Russia,68.970665,33.07497,Europe,Dfc,Murmansk,2
Russia,55.5738,42.0447,Europe,Dfb,Murom,2
Russia,55.9094928,37.7339358,Europe,Dfb,Mytishchi,2
Germany,51.1947131,6.4353792,Europe,Cfb,Mönchengladbach,2
Germany,51.4272925,6.8829192,Europe,Cfb,Mülheim,2
Germany,51.9625101,7.6251879,Europe,Cfb,Münster,2
Russia,43.4769604,43.5966578,Europe,Dfa,Nalchik,2
Belgium,50.4665284,4.8661892,Europe,Cfb,Namur,2
China,47.054532,129.36213,Asia,Dwb,Nancha,2
France,48.6937223,6.1834097,Europe,Cfb,Nancy,2
France,47.2186371,-1.5541362,Europe,Cfb,Nantes,2
Uzbekistan,42.0,64.0,Asia,BWk,Navoi,2
Russia,43.2320774,44.7540128,Europe,Cfa,Nazran,2
Russia,56.0884031,54.2478094,Europe,Dfb,Neftekamsk,2
Russia,61.0962043,72.6111908351568,Europe,Dfc,Nefteyugansk,2
China,48.4540245,125.119851,Asia,Dwb,Nehe,2
Germany,51.1981778,6.6916476,Europe,Cfb,Neuss,2
Russia,44.6245814,41.9475941,Europe,Cfa,Nevinnomyssk,2
United Kingdom,54.9738474,-1.6131572,Europe,Cfb,Newcastle Upon Tyne,2
United Kingdom,51.5882332,-2.9974967,Europe,Cfb,Newport,2
France,43.7009358,7.2683912,Europe,Csa,Nice,2
Netherlands,51.842574850000005,5.838960628748229,Europe,Cfb,Nijmegen,2
Serbia,43.5485333,19.7849208,Europe,Cfb,Nis,2
Russia,55.6412879,51.8160376,Europe,Dfb,Nizhnekamsk,2
Russia,60.9391866,76.55117870683605,Europe,Dfc,Nizhnevartovsk,2
Russia,56.3264816,44.0051395,Europe,Dfb,Nizhniy Novgorod,2
Russia,57.9215,59.9816,Europe,Dfb,Nizhniy Tagil,2
Russia,55.8553511,38.4411898,Europe,Dfb,Noginsk,2
Russia,69.3444054,88.2096151,Europe,Dfc,Norilsk,2
United Kingdom,52.23433665,-0.9028072768185827,Europe,Cfb,Northampton,2
United Kingdom,52.6285576,1.2923954,Europe,Cfb,Norwich,2
United Kingdom,52.9534193,-1.1496461,Europe,Cfb,Nottingham,2
Italy,45.58425005,8.545996970894572,Europe,Cfa,Novara,2
Serbia,45.2551338,19.8451756,Europe,Cfa,Novi Sad,2
Russia,56.1140023,47.4870341,Europe,Dfb,Novocheboksarsk,2
Russia,47.41066,40.101986,Europe,Dfa,Novocherkassk,2
Russia,53.7575903,87.1358494,Europe,Dfb,Novokuznetsk,2
Russia,54.011013,38.290943,Europe,Dfb,Novomoskovsk,2
Russia,44.7239578,37.7690711,Europe,Cfa,Novorossiysk,2
Russia,54.96781445,82.95159894278376,Europe,Dfb,Novosibirsk,2
Russia,51.196369,58.298527,Europe,Dfa,Novotroitsk,2
Uzbekistan,42.4600229,59.6176603,Asia,BWk,Nukus,2
Germany,49.453872,11.077298,Europe,Cfb,Nuremberg,2
Hungary,47.9557802,21.7167982,Europe,Cfb,Nyíregyháza,2
France,43.8374249,4.3600687,Europe,Csa,Nîmes,2
Germany,51.4696137,6.8514435,Europe,Cfb,Oberhausen,2
Japan,42.923809,143.1966324,Asia,Dfb,Obihiro,2
Russia,55.09992175,36.60927334723832,Europe,Dfb,Obninsk,2
Denmark,55.3997225,10.3852104,Europe,Cfb,Odense,2
Ukraine,46.4843023,30.7322878,Europe,Cfa,Odesa,2
Russia,55.678223,37.2668096,Europe,Dfb,Odintsovo,2
Germany,50.1055002,8.7610698,Europe,Cfb,Offenbach,2
Russia,54.4772,53.4895,Europe,Dfb,Oktyabrskiy,2
Germany,53.1389753,8.2146017,Europe,Cfb,Oldenburg,2
United Kingdom,53.5415797,-2.1147831,Europe,Cfb,Oldham,2
Czech Republic,49.5940567,17.251143,Europe,Cfb,Olomouc,2
Poland,53.77664395,20.477753092192152,Europe,Cfb,Olsztyn,2
Russia,54.9830067,73.37452243916528,Europe,Dfb,Omsk,2
Poland,50.678792900000005,17.929884436033525,Europe,Cfb,Opole,2
Romania,47.0549163,21.9285231,Europe,Cfb,Oradea,2
Russia,55.8083278,38.9790038,Europe,Dfb,Orekhovo Zuevo,2
France,47.9027336,1.9086066,Europe,Cfb,Orléans,2
Belarus,54.5119008,30.4254486,Europe,Dfb,Orsha,2
Russia,51.2305015,58.4738015,Europe,Dfa,Orsk,2
Russia,52.9687747,36.0694937,Europe,Dfb,Orël,2
Norway,59.9133301,10.7389701,Europe,Cfb,Oslo,2
Germany,52.37265095,8.161049572938472,Europe,Cfb,Osnabrück,2
Czech Republic,49.8349139,18.2820084,Europe,Cfb,Ostrava,2
Japan,43.1906806,140.9946021,Asia,Dfb,Otaru,2
Canada,45.4208777,-75.6901106,North America,Dfb,Ottawa,2
Finland,65.0118734,25.4716809,Europe,Dfc,Oulu,2
Spain,43.3618625,-5.8483581,Europe,Csb,Oviedo,2
United Kingdom,51.7520131,-1.2578499,Europe,Cfb,Oxford,2
Germany,51.7177044,8.752653,Europe,Cfb,Paderborn,2
Italy,45.4077172,11.8734455,Europe,Cfa,Padova,2
Lithuania,55.7344985,24.3578055,Europe,Dfb,Panevezys,2
France,48.8588897,2.3200410217200766,Europe,Cfb,Paris,2
Italy,44.8013678,10.3280833,Europe,Cfa,Parma,2
Kazakhstan,51.8111545,76.4285287,Asia,Dfb,Pavlodar,2
Ukraine,48.5316759,35.8703695,Europe,Dfa,Pavlohrad,2
Russia,53.200001,45.0,Europe,Dfb,Penza,2
Russia,58.014965,56.246723,Europe,Dfb,Perm,2
Russia,56.9051246,59.9431941,Europe,Dfb,Pervouralsk,2
United Kingdom,52.5725769,-0.2427336,Europe,Cfb,Peterborough,2
Kazakhstan,54.8668104,69.1334984,Asia,Dfb,Petropavl,2
Russia,53.0199838,158.6471356,Europe,Dfc,Petropavlovsk Kamchatskiy,2
Russia,61.7900426,34.390007,Europe,Dfc,Petrozavodsk,2
Germany,48.8908846,8.7029532,Europe,Cfb,Pforzheim,2
Romania,46.93047765,26.378928875635847,Europe,Dfb,Piatra Neamt,2
Belarus,52.1113862,26.1025274,Europe,Dfb,Pinsk,2
Romania,44.8572343,24.8719422,Europe,Cfb,Pitesti,2
Poland,52.5353471,19.713630138580008,Europe,Cfb,Plock,2
Romania,44.9417468,26.0236504,Europe,Cfa,Ploiesti,2
United Kingdom,50.3714122,-4.1424451,Europe,Cfb,Plymouth,2
Czech Republic,49.7477415,13.3775249,Europe,Cfb,Plzen,2
Montenegro,42.4415238,19.2621081,Europe,Csa,Podgorica,2
Russia,55.4308841,37.5453056,Europe,Dfb,Podolsk,2
Ukraine,49.8607809,33.7498787,Europe,Dfb,Poltava,2
United Kingdom,50.7179472,-1.981521,Europe,Cfb,Poole,2
United Kingdom,50.800031,-1.0906023,Europe,Cfb,Portsmouth,2
Germany,52.4009309,13.0591397,Europe,Cfb,Potsdam,2
Poland,52.4082663,16.9335199,Europe,Cfb,Poznan,2
Czech Republic,50.0874654,14.4212535,Europe,Cfb,Prague,2
Italy,43.935718050000006,11.09414726770089,Europe,Csb,Prato,2
United Kingdom,53.7593363,-2.6992717,Europe,Cfb,Preston,2
Serbia,44.79900155,20.47820722879249,Europe,Cfa,Pristina,2
Russia,53.8879117,86.7492072,Europe,Dfb,Prokopyevsk,2
United States,41.8239891,-71.4128343,North America,Cfa,Providence,2
Russia,57.8173923,28.3343465,Europe,Dfb,Pskov,2
Chile,-41.471798,-72.9395915,South America,Cfb,Puerto Montt,2
Chile,-53.1625688,-70.907822,South America,Cfc,Punta Arenas,2
Russia,44.039775,43.0706669,Europe,Dfb,Pyatigorsk,2
Hungary,46.0765092,18.2280317,Europe,Cfb,Pécs,2
China,45.1157473,124.8172479,Asia,Dwa,Qianguo,2
China,47.7363891,124.6567611,Asia,Dwa,Qiqihar,2
China,45.7703578,131.0066556,Asia,Dwa,Qitaihe,2
Kazakhstan,52.0615626,62.9372689,Asia,Dfb,Qostanay,2
Canada,46.813889,-71.208056,North America,Dfb,Quebec,2
Poland,51.41716055,21.160944780832743,Europe,Cfb,Radom,2
Romania,45.1031731,24.3647209,Europe,Cfb,Ramnicu Valcea,2
China,46.731266,124.7891124,Asia,Dwa,Ranghulu,2
Germany,49.0195333,12.0974869,Europe,Cfb,Ratisbon,2
Italy,44.3640607,12.059009490863945,Europe,Cfa,Ravenna,2
United Kingdom,51.4564242,-0.9700664,Europe,Cfb,Reading,2
Germany,51.6143815,7.1978546,Europe,Cfb,Recklinghausen,2
Canada,50.44876,-104.61731,North America,Dfb,Regina,2
France,49.2577886,4.031926,Europe,Cfb,Reims,2
Germany,51.1798706,7.1943544,Europe,Cfb,Remscheid,2
France,48.1113387,-1.6800198,Europe,Cfb,Rennes,2
Germany,48.4919508,9.2114144,Europe,Cfb,Reutlingen,2
Iceland,64.145981,-21.9422367,Europe,Cfc,Reykjavík,2
Latvia,56.9493977,24.1051846,Europe,Cfb,Riga,2
Croatia,45.3267976,14.442208,Europe,Cfa,Rijeka,2
Italy,43.9465039,12.63103171574298,Europe,Cfa,Rimini,2
Ukraine,51.2074112,26.5208033,Europe,Dfb,Rivne,2
Germany,54.0886707,12.1400211,Europe,Cfb,Rostock,2
Russia,47.2216548,39.7096061,Europe,Cfa,Rostov Na Donu,2
United Kingdom,53.4310417,-1.355187,Europe,Cfb,Rotherham,2
Netherlands,51.9244424,4.47775,Europe,Cfb,Rotterdam,2
France,49.4404591,1.0939658,Europe,Cfb,Rouen,2
Russia,51.5276264,81.2176174,Europe,Dfb,Rubtsovsk,2
Poland,50.27034825,18.86438790174756,Europe,Cfb,Ruda Slaska,2
Russia,54.6295687,39.7425039,Europe,Dfb,Ryazan,2
Russia,58.050373,38.834637,Europe,Dfb,Rybinsk,2
Poland,50.1105691,18.553187366087336,Europe,Cfb,Rybnik,2
Poland,50.0374531,22.0047174,Europe,Cfb,Rzeszow,2
Germany,49.234362,6.996379,Europe,Cfb,Saarbrücken,2
United Kingdom,53.65935655,-1.4817745220095315,Europe,Cfb,Saint Helens,2
United States,44.9497487,-93.0931028,North America,Dfa,Saint Paul,2
Russia,59.938732,30.316229,Europe,Dfb,Saint Petersburg,2
France,45.4401467,4.3873058,Europe,Cfb,Saint Étienne,2
Russia,53.361687,55.924641,Europe,Dfb,Salavat,2
Belarus,52.7893039,27.5318168,Europe,Dfb,Salihorsk,2
Austria,47.7981346,13.0464806,Europe,Cfb,Salzburg,2
Germany,52.1503721,10.3593147,Europe,Cfb,Salzgitter,2
Russia,53.2194648,50.2039316,Europe,Dfb,Samara,2
Spain,43.4620412,-3.8099719,Europe,Cfb,Santander,2
Bosnia And Herzegovina,43.8519774,18.3866868,Europe,Cfb,Sarajevo,2
Russia,54.18671,45.18383,Europe,Dfb,Saransk,2
Russia,56.477334,53.8192957,Europe,Dfb,Sarapul,2
Russia,51.530018,46.034683,Europe,Dfa,Saratov,2
Canada,52.131802,-106.660767,North America,Dfb,Saskatoon,2
Romania,47.7891763,22.8725598,Europe,Cfb,Satu Mare,2
United States,47.6038321,-122.330062,North America,Csb,Seattle,2
Kazakhstan,50.404377,80.2496637,Asia,Dfa,Semey,2
Russia,56.3153284,38.1359898,Europe,Dfb,Sergiyev Posad,2
Russia,54.9155247,37.4195533,Europe,Dfb,Serpukhov,2
Russia,64.563385,39.823769,Europe,Dfc,Severodvinsk,2
Russia,56.603161,84.881012,Europe,Dfb,Seversk,2
Russia,47.7119167,40.2115699,Europe,Dfa,Shakhty,2
United Kingdom,53.3806626,-1.4702278,Europe,Cfb,Sheffield,2
Canada,45.403271,-71.889038,North America,Dfb,Sherbrooke,2
